"name","lat","lon","address","source","cat"
"Ashi Itzcalli","-36.86298","174.7363","1 Surrey Cres Grey Lynn Auckland 1021 New Zealand","here","restaurant"
"Bamboo House","-36.84563","174.76767","Auckland Central Auckland 1010 New Zealand","here","restaurant"
"Suit Hire & Tailors","-36.84931","174.76309","Auckland Central Auckland 1010 New Zealand","here","shop"
"Japan External Trade Organisation","-36.84992","174.76286","Auckland Central Auckland 1010 New Zealand","here","government"
"Maggie Potter","-36.85873","174.78266","Parnell Auckland 1052 New Zealand","here","shop"
"New Zealand Post","-36.85056","174.76333","Auckland Central Auckland 1010 New Zealand","here","government"
"Auckland City Council","-36.85317","174.7624","Auckland Central Auckland 1010 New Zealand","here","government"
"The Mustard Seed","-36.8512","174.76013","Auckland Central Auckland 1010 New Zealand","here","restaurant"
"$5-$10 Clothes","-36.8575","174.76004","St Kevins Arc Auckland Central Auckland 1010 New Zealand","here","shop"
"Spark","-36.8479","174.75832","Auckland Central Auckland 1010 New Zealand","here","shop"
"21 Viaduct Cafe","-36.84497","174.75789","Auckland Central Auckland 1010 New Zealand","here","cafe"
"Romani Cafe","-36.84612","174.76766","Auckland Central Auckland 1010 New Zealand","here","restaurant"
"Beauty Within On Ponsonby","-36.84971","174.7509","Freemans Bay Auckland 1011 New Zealand","here","office"
"The Camel Bar, Fort Street","-36.846168","174.76828","Auckland Central Auckland 1010 New Zealand","here","hotel"
"Turko","-36.848801","174.754684","Auckland Central Auckland 1010 New Zealand","here","cafe"
"Kaffeine","-36.847406","174.764146","Auckland Central Auckland 1010 New Zealand","here","cafe"
"The Caker","-36.85864","174.75524","Auckland Central Auckland 1010 New Zealand","here","restaurant"
"Fabric","-36.84689","174.76677","Auckland Central Auckland 1010 New Zealand","here","shop"
"New Zealand Wholesale Seafoods","-36.84433","174.75467","Auckland Central Auckland 1010 New Zealand","here","shop"
"Liquor Licensing Consultants","-36.81688","174.74671","Northcote Point Auckland 0627 New Zealand","here","education"
"Neptune","-36.84109","174.76461","Auckland Central Auckland 1010 New Zealand","here","activities"
"Federal & Wolfe Cafe","-36.84494","174.76426","Auckland Central Auckland 1010 New Zealand","here","restaurant"
"Church of the Holy Sepulchre Maori","-36.86467","174.76252","Grafton Auckland 1023 New Zealand","here","religion"
"Labtests","-36.8436","174.76741","Auckland Central Auckland 1010 New Zealand","here","medical"
"Matisse","-36.84947","174.78058","Parnell Auckland 1052 New Zealand","here","shop"
"YHA International Hostel","-36.855677","174.763136","Auckland Central Auckland 1010 New Zealand","here","hotel"
"Kungfu Noodles","-36.8562","174.76242","Auckland Central Auckland 1010 New Zealand","here","restaurant"
"Brookfields Lawyers","-36.84934","174.76496","Auckland Central Auckland 1010 New Zealand","here","office"
"Daikoku","-36.84888","174.76486","Auckland Central Auckland 1010 New Zealand","here","restaurant"
"Mayoral Drive by Aotea Centre","-36.851146","174.762285","Auckland Central Auckland 1010 New Zealand","here","delete"
"WESTERN UNION","-36.85069","174.7625","Auckland Central Auckland 1010 New Zealand","here","money"
"The Point Apartments","-36.84358","174.76005","Auckland Central Auckland 1010 New Zealand","here","residence"
"The Big Foody Food Tours","-36.85125","174.76453","Auckland Central Auckland 1010 New Zealand","here","activities"
"Vero Centre","-36.8469","174.76802","Auckland Central Auckland 1010 New Zealand","here","office"
"Thaiyanee","-36.84893","174.7736","Auckland Central Auckland 1010 New Zealand","here","restaurant"
"Epsom Remuera Croquet Club","-36.88747","174.77061","Epsom Auckland 1023 New Zealand","here","shop"
"New Zealand National Institiute of Business","-36.84578","174.76271","Auckland Central Auckland 1010 New Zealand","here","education"
"Quay St Opposite Tapora St","-36.845727","174.775186","Quay St Auckland Central Auckland 1010 New Zealand","here","delete"
"Colestown Chocolates","-36.84807","174.76581","Auckland Central Auckland 1010 New Zealand","here","restaurant"
"The Library","-36.84479","174.7616","1 Pakenham St E Auckland Central Auckland 1010 New Zealand","here","restaurant"
"Auckland Frameless Designer Glass","-36.84304","174.76527","Auckland Central Auckland 1010 New Zealand","here","office"
"Japan External Trade Organisation","-36.84992","174.76286","Auckland Central Auckland 1010 New Zealand","here","government"
"Seed Credit Limited","-36.84626","174.76639","Auckland Central Auckland 1010 New Zealand","here","office"
"WESTERN UNION","-36.85069","174.7625","Auckland Central Auckland 1010 New Zealand","here","money"
"Automotive Injection Services","-36.88034","174.74552","Sandringham Auckland 1025 New Zealand","here","car"
"Dean Greenwood Swim School","-36.8757","174.75684","Mount Eden Auckland 1024 New Zealand","here","sports"
"183 Richmond Rd","-36.8546","174.73648","Grey Lynn Auckland 1021 New Zealand","here","delete"
"St David's Presbyterian Church","-36.86444","174.76296","68 Khyber Pass Rd Grafton Auckland 1023 New Zealand","here","religion"
"European Antiques & Furnishings","-36.86324","174.74578","Grey Lynn Auckland 1021 New Zealand","here","shop"
"Consulate of Israel","-36.88278","174.77684","Epsom Auckland 1023 New Zealand","here","government"
"Manuka Natural Therapies","-36.85055","174.7616","Auckland Central Auckland 1010 New Zealand","here","medical"
"The Point Apartments","-36.84358","174.76005","Auckland Central Auckland 1010 New Zealand","here","residence"
"WESTERN UNION","-36.85069","174.7625","Auckland Central Auckland 1010 New Zealand","here","money"
"Jelico Street Car Pak","-36.84159","174.75529","Auckland Central Auckland 1010 New Zealand","here","car"
"Auckland Art Gallery Cafe","-36.8515","174.76587","Mayoral Dr Auckland Central Auckland 1010 New Zealand","here","restaurant"
"City Convenience Store","-36.84512","174.76494","Auckland Central Auckland 1010 New Zealand","here","grocery"
"Barbara Johnson USA Immigration Attorney","-36.8445","174.76503","Auckland Central Auckland 1010 New Zealand","here","office"
"Yoshizawa","-36.84936","174.76585","Auckland Central Auckland 1010 New Zealand","here","cafe"
"BURGER KING","-36.84943","174.76517","222 Queen St Auckland Central Auckland 1010 New Zealand","here","restaurant"
"Hue","-36.84934","174.75138","Freemans Bay Auckland 1011 New Zealand","here","office"
"100 Victoria St","-36.84796","174.76082","Auckland Central Auckland 1010 New Zealand","here","delete"
"Fanshawe St Opp Victoria Park","-36.8457","174.75543","125 Fanshawe St Auckland Central Auckland 1010 New Zealand","here","delete"
"Pizza Hut","-36.84737","174.7626","Auckland Central Auckland 1010 New Zealand","here","restaurant"
"Andrew W Whillans","-36.8722","174.76864","Epsom Auckland 1023 New Zealand","here","medical"
"Roma Blooms","-36.84824","174.7634","Auckland Central Auckland 1010 New Zealand","here","shop"
"Betta Batteries","-36.84601","174.75919","Auckland Central Auckland 1010 New Zealand","here","shop"
"Austin Autobody","-36.85303","174.76713","Auckland Central Auckland 1010 New Zealand","here","car"
"Gladiator Marine","-36.8449","174.7628","Auckland Central Auckland 1010 New Zealand","here","sports"
"Betta Batteries","-36.84601","174.75919","Auckland Central Auckland 1010 New Zealand","here","shop"
"The Place Cafe","-36.84942","174.75577","Auckland Central Auckland 1010 New Zealand","here","cafe"
"SOFITEL","-36.84505","174.75743","Auckland Central Auckland 1010 New Zealand","here","hotel"
"The Coffee Club","-36.84814","174.76656","Auckland Central Auckland 1010 New Zealand","here","restaurant"
"Daldy Street Park","-36.84239","174.75532","Auckland Central Auckland 1010 New Zealand","here","park"
"Habitual Fix","-36.84365","174.75354","Auckland Central Auckland 1010 New Zealand","here","restaurant"
"Wishbone","-36.84625","174.77498","Auckland Central Auckland 1010 New Zealand","here","cafe"
"Corlet Motor Company","-36.84655","174.77084","Auckland Central Auckland 1010 New Zealand","here","car"
"Good Morning Dairy","-36.8579","174.76217","Grafton Auckland 1023 New Zealand","here","grocery"
"Wilson Parking Britomart Place","-36.84456","174.77191","Auckland Central Auckland 1010 New Zealand","here","car"
"Cats on Stilts","-36.86341","174.76378","Grafton Auckland 1023 New Zealand","here","delete"
"Singh's Style Indian Takeaway","-36.84577","174.77105","Auckland Central Auckland 1010 New Zealand","here","restaurant"
"Brookfields Lawyers","-36.84934","174.76496","Auckland Central Auckland 1010 New Zealand","here","office"
"Citizen Q","-36.85275","174.76347","Auckland Central Auckland 1010 New Zealand","here","restaurant"
"Mindalive","-36.85381","174.76166","Auckland Central Auckland 1010 New Zealand","here","education"
"Daikoku","-36.84356","174.76809","Auckland Central Auckland 1010 New Zealand","here","restaurant"
"Area 51","-36.84865","174.7663","Auckland Central Auckland 1010 New Zealand","here","shop"
"Yu Yuan Seafood Restaurant","-36.86505","174.77579","Newmarket Auckland 1023 New Zealand","here","restaurant"
"Glass Goose","-36.8445","174.76438","Auckland Central Auckland 1010 New Zealand","here","bar"
"Nicholson Panel Beaters","-36.86228","174.75715","Eden Terrace Auckland 1021 New Zealand","here","car"
"Kabuki Teppanyaki","-36.84575","174.76499","Auckland Central Auckland 1010 New Zealand","here","restaurant"
"The Coffee Club","-36.8473","174.76491","Auckland Central Auckland 1010 New Zealand","here","cafe"
"Opposite 2 Mountain Rd","-36.86701","174.77021","43 Mountain Rd Epsom Auckland 1023 New Zealand","here","delete"
"Area 51","-36.84865","174.7663","Auckland Central Auckland 1010 New Zealand","here","shop"
"Rations Lunch Bar","-36.85578","174.76673","Grafton Auckland 1023 New Zealand","here","cafe"
"Parkright","-36.8512","174.76218","Auckland Central Auckland 1010 New Zealand","here","car"
"Albert Park Cafe","-36.84986","174.76654","Auckland Central Auckland 1010 New Zealand","here","cafe"
"Mayoral Drive by Aotea Centre","-36.851146","174.762285","Auckland Central Auckland 1010 New Zealand","here","delete"
"Pastis","-36.84769","174.76005","Auckland Central Auckland 1010 New Zealand","here","restaurant"
"The Nathan Club","-36.84494","174.76944","Auckland Central Auckland 1010 New Zealand","here","activities"
"Just Laptops","-36.84576","174.7687","Auckland Central Auckland 1010 New Zealand","here","shop"
"90 Seconds","-36.84268","174.75749","Auckland Central Auckland 1010 New Zealand","here","delete"
"Adams Convenience","-36.84739","174.76192","60 Hobson St Auckland Central Auckland 1010 New Zealand","here","grocery"
"Suit Hire & Tailors","-36.84931","174.76309","Auckland Central Auckland 1010 New Zealand","here","shop"
"Daebak BBQ","-36.84884","174.7631","Auckland Central Auckland 1010 New Zealand","here","restaurant"
"Suit Hire & Tailors","-36.84931","174.76309","Auckland Central Auckland 1010 New Zealand","here","shop"
"Mayoral Drive Opposite Aut","-36.852702","174.765637","Mayoral Dr Auckland Central Auckland 1010 New Zealand","here","delete"
"No 1 Pancake","-36.85103","174.76526","Auckland Central Auckland 1010 New Zealand","here","restaurant"
"Sackville Reserve","-36.85544","174.73472","Grey Lynn Auckland 1021 New Zealand","here","park"
"Bay Audiology","-36.86331","174.7807","Parnell Auckland 1052 New Zealand","here","medical"
"Carpet Court","-36.86653","174.77282","Newmarket Auckland 1023 New Zealand","here","shop"
"High Court","-36.84972","174.77186","Auckland Central Auckland 1010 New Zealand","here","government"
"AON New Zealand Auckland","-36.844","174.76488","Auckland Central Auckland 1010 New Zealand","here","office"
"Apex Natural Heathcare","-36.85497","174.73104","Westmere Auckland 1022 New Zealand","here","medical"
"Makeup Direct","-36.8495","174.76434","Auckland Central Auckland 1010 New Zealand","here","shop"
"Neptune","-36.84109","174.76461","Auckland Central Auckland 1010 New Zealand","here","activities"
"Citizen Q","-36.85275","174.76347","Auckland Central Auckland 1010 New Zealand","here","restaurant"
"Kings Bridge Appartments","-36.84937","174.7593","63 Nelson St Auckland Central Auckland 1010 New Zealand","here","residence"
"Euro","-36.84187","174.76478","Auckland Central Auckland 1010 New Zealand","here","restaurant"
"Saika japanese restaurant","-36.850659","174.763241","Auckland Central Auckland 1010 New Zealand","here","restaurant"
"J A Russell LTD","-36.85116","174.75806","Auckland Central Auckland 1010 New Zealand","here","shop"
"Auckland Bowling Club","-36.85532","174.77111","Grafton Auckland 1023 New Zealand","here","sports"
"YMCA Greys Avenue Fitness Centre and Stadium","-36.855043","174.759793","Auckland Central Auckland 1010 New Zealand","here","sports"
"Carters","-36.87668","174.73274","14 Taylors Rd Sandringham Auckland 1025 New Zealand","here","shop"
"Banzai Sushi","-36.86373","174.76093","Eden Terrace Auckland 1021 New Zealand","here","restaurant"
"Auckland Council Archives","-36.85169","174.76522","Auckland Central Auckland 1010 New Zealand","here","education"
"Grand Windsor Hotel Auckland","-36.84556","174.76656","Auckland Central Auckland 1010 New Zealand","here","hotel"
"Hubbard Dianetics Foundation","-36.86408","174.76201","Grafton Auckland 1023 New Zealand","here","medical"
"Shakespeare Tavern & Hotel","-36.84433","174.76534","Fanshawe St Auckland Central Auckland 1010 New Zealand","here","hotel"
"Upstairs Antiques","-36.84511","174.7667","Auckland Central Auckland 1010 New Zealand","here","shop"
"Carter Atmore Law","-36.856919","174.763923","Grafton Auckland 1023 New Zealand","here","office"
"Discstation","-36.85809","174.76277","Grafton Auckland 1023 New Zealand","here","shop"
"Brian Moorwood","-36.84762","174.76855","Auckland Central Auckland 1010 New Zealand","here","shop"
"Life Insurance Policy Exchange","-36.84876","174.76682","Auckland Central Auckland 1010 New Zealand","here","office"
"Japan External Trade Organisation","-36.84992","174.76286","Auckland Central Auckland 1010 New Zealand","here","government"
"Auckland Convention Centre","-36.84938","174.76306","Auckland Central Auckland 1010 New Zealand","here","grocery"
"Mayoral Dr Overbridge","-36.854194","174.76272","Auckland Central Auckland 1010 New Zealand","here","delete"
"The Lobby","-36.84918","174.76235","Auckland Central Auckland 1010 New Zealand","here","bar"
"Cromwell House & Hospital","-36.88337","174.77665","Epsom Auckland 1023 New Zealand","here","medical"
"District Dining","-36.84552","174.76995","Auckland Central Auckland 1010 New Zealand","here","restaurant"
"Star Convenience Store","-36.85639","174.76352","Grafton Auckland 1023 New Zealand","here","grocery"
"Edit.","-36.84808","174.76758","Auckland Central Auckland 1010 New Zealand","here","shop"
"Four Square","-36.88063","174.76172","Mount Eden Auckland 1024 New Zealand","here","restaurant"
"Chapman Onion Exports","-36.84945","174.75371","Auckland Central Auckland 1010 New Zealand","here","shop"
"Theater Cafe Bar","-36.85329","174.76348","Auckland Central Auckland 1010 New Zealand","here","cafe"
"Three Beans Coffee","-36.850325","174.758582","Auckland Central Auckland 1010 New Zealand","here","cafe"
"The Killingroom","-36.87069","174.74469","Kingsland Auckland 1021 New Zealand","here","office"
"Express Car Rental","-36.84931","174.77816","Parnell Auckland 1052 New Zealand","here","car"
"Japan External Trade Organisation","-36.84992","174.76286","Auckland Central Auckland 1010 New Zealand","here","government"
"La Porchetta","-36.84748","174.76182","Auckland Central Auckland 1010 New Zealand","here","restaurant"
"Solo Espresso","-36.8444","174.76395","Auckland Central Auckland 1010 New Zealand","here","cafe"
"Austin Autobody","-36.85303","174.76713","Auckland Central Auckland 1010 New Zealand","here","car"
"Tactics Restaurant","-36.84285","174.76456","Auckland Central Auckland 1010 New Zealand","here","restaurant"
"The Counter","-36.85323","174.76517","Auckland Central Auckland 1010 New Zealand","here","government"
"One Hobson Restaurant & Bar","-36.84498","174.76305","10 Hobson St Auckland Central Auckland 1010 New Zealand","here","restaurant"
"Amada Cruises","-36.845276","174.7584","16 Viaduct Harbour Ave Auckland Central Auckland 1010 New Zealand","here","activities"
"Shaolin Monks Wheel of Life","-36.850605","174.76263","Auckland Central Auckland 1010 New Zealand","here","activities"
"La Zeppa","-36.84876","174.75405","Auckland Central Auckland 1010 New Zealand","here","restaurant"
"Freemans Bay Community Centre","-36.85321","174.75147","Freemans Bay Auckland 1011 New Zealand","here","government"
"Consulate of Uruguay","-36.84534","174.75812","Auckland Central Auckland 1010 New Zealand","here","government"
"Tank","-36.84807","174.75865","Auckland Central Auckland 1010 New Zealand","here","restaurant"
"Pregnancy Help","-36.84678","174.76379","Auckland Central Auckland 1010 New Zealand","here","medical"
"Natural Grace Chiropractic Centre","-36.85702","174.73468","Grey Lynn Auckland 1021 New Zealand","here","medical"
"Ecostore","-36.84861","174.75067","Freemans Bay Auckland 1011 New Zealand","here","shop"
"Karen Walker","-36.84749","174.76711","Auckland Central Auckland 1010 New Zealand","here","shop"
"Sturdee St Near Pakenham St","-36.844683","174.761982","Auckland Central Auckland 1010 New Zealand","here","delete"
"Greys Ave Deli","-36.85541","174.75964","Auckland Central Auckland 1010 New Zealand","here","restaurant"
"Pandoro Panetteria","-36.85924","174.7829","Parnell Auckland 1052 New Zealand","here","shop"
"The Peace Place","-36.84612","174.7711","Auckland Central Auckland 1010 New Zealand","here","religion"
"Auckland Central Police Station","-36.85179","174.76031","Auckland Central Auckland 1010 New Zealand","here","government"
"Herald Theater","-36.85137","174.76188","Auckland Central Auckland 1010 New Zealand","here","activities"
"Commerce Street by Customs Street","-36.84554","174.7679","Auckland Central Auckland 1010 New Zealand","here","delete"
"Lime Thai","-36.85152","174.76385","Auckland Central Auckland 1010 New Zealand","here","restaurant"
"The White Rabbit","-36.8455","174.76897","Auckland Central Auckland 1010 New Zealand","here","restaurant"
"First Steps Parnell","-36.84923","174.77687","Parnell Auckland 1052 New Zealand","here","education"
"Sushi Edge","-36.85468","174.73167","Westmere Auckland 1022 New Zealand","here","restaurant"
"The North Face","-36.84621","174.76636","Auckland Central Auckland 1010 New Zealand","here","shop"
"Te Taou Reserve","-36.848053","174.775128","Auckland Central Auckland 1010 New Zealand","here","activities"
"Japan External Trade Organisation","-36.84992","174.76286","Auckland Central Auckland 1010 New Zealand","here","government"
"The Bluestone Room","-36.84756","174.76462","Auckland Central Auckland 1010 New Zealand","here","restaurant"
"Arcadia Book Store","-36.86934","174.776699","Newmarket Auckland 1023 New Zealand","here","shop"
"Lime Thai","-36.85152","174.76385","Auckland Central Auckland 1010 New Zealand","here","restaurant"
"Labtests","-36.8436","174.76741","Auckland Central Auckland 1010 New Zealand","here","medical"
"Sal's Pizza","-36.85067","174.76439","Auckland Central Auckland 1010 New Zealand","here","restaurant"
"A2b Car Rentals","-36.85115","174.77496","Auckland Central Auckland 1010 New Zealand","here","car"
"ANZ","-36.84568","174.76475","Auckland Central Auckland 1010 New Zealand","here","money"
"Kings Bridge Appartments","-36.84937","174.7593","63 Nelson St Auckland Central Auckland 1010 New Zealand","here","residence"
"Tournament Parking","-36.854","174.76136","Auckland Central Auckland 1010 New Zealand","here","car"
"The Bird Cage","-36.84846","174.75281","Freemans Bay Auckland 1011 New Zealand","here","bar"
"Austin Autobody","-36.85303","174.76713","Auckland Central Auckland 1010 New Zealand","here","car"
"Mayoral Drive Opposite Aut","-36.852702","174.765637","Mayoral Dr Auckland Central Auckland 1010 New Zealand","here","delete"
"Just Laptops","-36.84576","174.7687","Auckland Central Auckland 1010 New Zealand","here","shop"
"Auckland Central Police Station","-36.85179","174.76031","Auckland Central Auckland 1010 New Zealand","here","government"
"Fanshawe Car Park","-36.84582","174.75972","Auckland Central Auckland 1010 New Zealand","here","car"
"Albert Park Cafe","-36.84986","174.76654","Auckland Central Auckland 1010 New Zealand","here","cafe"
"GalatosLive","-36.85861","174.75772","Auckland Central Auckland 1010 New Zealand","here","activities"
"Craig Griffin & Lord","-36.87202","174.76178","Mount Eden Auckland 1024 New Zealand","here","office"
"Allens Realty","-36.87983","174.76139","Mount Eden Auckland 1024 New Zealand","here","shop"
"Parnell Rd Near St Marys Close","-36.85992","174.78286","433 Parnell Rd Parnell Auckland 1052 New Zealand","here","delete"
"Gauchos","-36.84608","174.76352","Auckland Central Auckland 1010 New Zealand","here","restaurant"
"Hullucar","-36.85065","174.76363","Auckland Central Auckland 1010 New Zealand","here","cafe"
"Kungfu Noodles","-36.8562","174.76242","Auckland Central Auckland 1010 New Zealand","here","restaurant"
"A2Z Translate Ltd","-36.84693","174.76745","Auckland Central Auckland 1010 New Zealand","here","office"
"Hue","-36.84934","174.75138","Freemans Bay Auckland 1011 New Zealand","here","office"
"Japanese Cuisine","-36.84345","174.76093","Auckland Central Auckland 1010 New Zealand","here","restaurant"
"Avantiplus Newmarket","-36.86513","174.77673","Newmarket Auckland 1023 New Zealand","here","shop"
"Jones the Grocer","-36.84328","174.76153","Auckland Central Auckland 1010 New Zealand","here","cafe"
"Mayoral Drive Opposite Aut","-36.852702","174.765637","Mayoral Dr Auckland Central Auckland 1010 New Zealand","here","delete"
"Wishbone","-36.84625","174.77498","Auckland Central Auckland 1010 New Zealand","here","cafe"
"Auckland Uni of Technology-Gate 3","-36.85236","174.76679","Auckland Central Auckland 1010 New Zealand","here","education"
"Sunbeam Victa Corporation","-36.8674","174.7709","Epsom Auckland 1023 New Zealand","here","shop"
"Discstation","-36.85809","174.76277","Grafton Auckland 1023 New Zealand","here","shop"
"Grand Palace","-36.84771","174.7677","Auckland Central Auckland 1010 New Zealand","here","shop"
"Hineteiwaiwa te Kohanga Reo","-36.85138","174.77339","Auckland Central Auckland 1010 New Zealand","here","education"
"Grand Palace","-36.84771","174.7677","Auckland Central Auckland 1010 New Zealand","here","shop"
"Porter's Original Paints","-36.84821","174.77327","Auckland Central Auckland 1010 New Zealand","here","shop"
"Servilles Academy of Hairdressing","-36.84684","174.76572","Auckland Central Auckland 1010 New Zealand","here","education"
"Gio Hair & Nail","-36.86935","174.77794","Newmarket Auckland 1023 New Zealand","here","office"
"Albert Park Cafe","-36.84986","174.76654","Auckland Central Auckland 1010 New Zealand","here","cafe"
"The Coffee Club","-36.84814","174.76656","Auckland Central Auckland 1010 New Zealand","here","restaurant"
"SUBWAY","-36.84705","174.77888","Auckland Central Auckland 1010 New Zealand","here","restaurant"
"Social Cooking","-36.85107","174.758399","Auckland Central Auckland 1010 New Zealand","here","education"
"Unilodge Beach Road","-36.84922","174.77453","Auckland Central Auckland 1010 New Zealand","here","residence"
"Zintel Communications","-36.84968","174.75248","Freemans Bay Auckland 1011 New Zealand","here","delete"
"Gallery Cafe","-36.84694","174.77202","Auckland Central Auckland 1010 New Zealand","here","cafe"
"Rainey Collins Wright","-36.84721","174.77017","Auckland Central Auckland 1010 New Zealand","here","office"
"Wellpark College of Natural Therapies","-36.85903","174.73054","Grey Lynn Auckland 1021 New Zealand","here","education"
"Parnell Rise Near Stanley St","-36.850552","174.77462","Auckland Central Auckland 1010 New Zealand","here","delete"
"Symonds St Wall of the Fallen","-36.85879","174.76372","Grafton Auckland 1023 New Zealand","here","activities"
"Auckland Radiology Group","-36.84626","174.76613","Auckland Central Auckland 1010 New Zealand","here","medical"
"The Black Hoof","-36.84734","174.76505","Auckland Central Auckland 1010 New Zealand","here","restaurant"
"Old Cornmill Deli","-36.85817","174.76375","Grafton Auckland 1023 New Zealand","here","cafe"
"Alarm New Zealand","-36.85868","174.75677","Auckland Central Auckland 1010 New Zealand","here","education"
"Bretmar Transmission","-36.849925","174.763725","Auckland Central Auckland 1010 New Zealand","here","car"
"Embroidme","-36.85189","174.75968","Auckland Central Auckland 1010 New Zealand","here","shop"
"The Brick Shirt House","-36.84769","174.76788","Auckland Central Auckland 1010 New Zealand","here","shop"
"BBQ King","-36.84816","174.7652","Auckland Central Auckland 1010 New Zealand","here","restaurant"
"Sebel Quay West Suites","-36.84492","174.76513","Auckland Central Auckland 1010 New Zealand","here","hotel"
"Rad3 Limited","-36.8492","174.75063","Freemans Bay Auckland 1011 New Zealand","here","delete"
"Upstairs Antiques","-36.84511","174.7667","Auckland Central Auckland 1010 New Zealand","here","shop"
"More Than Print","-36.84967","174.7512","92 Franklin Rd Freemans Bay Auckland 1011 New Zealand","here","shop"
"City Convenience Store","-36.84512","174.76494","Auckland Central Auckland 1010 New Zealand","here","grocery"
"Cremorne Reserve","-36.84294","174.731","6 Cremorne St Herne Bay Auckland 1011 New Zealand","here","park"
"Kinz","-36.85579","174.76234","Auckland Central Auckland 1010 New Zealand","here","education"
"Eden Park","-36.87655","174.74547","Mount Eden Auckland 1024 New Zealand","here","sports"
"Karangahape Rd by Cemetery","-36.85823","174.76324","Grafton Auckland 1023 New Zealand","here","delete"
"Jewellery Valuation Centre","-36.84686","174.76771","Auckland Central Auckland 1010 New Zealand","here","shop"
"Tricks Magic Shop","-36.84607","174.76436","Auckland Central Auckland 1010 New Zealand","here","office"
"Joong Wha Ru","-36.85565","174.76246","Auckland Central Auckland 1010 New Zealand","here","restaurant"
"Skin Institute","-36.85396","174.77251","Parnell Auckland 1052 New Zealand","here","medical"
"Life Insurance Policy Exchange","-36.84876","174.76682","Auckland Central Auckland 1010 New Zealand","here","office"
"Vector Arena","-36.84704","174.77608","Auckland Central Auckland 1010 New Zealand","here","sports"
"Bay Audiology","-36.86331","174.7807","Parnell Auckland 1052 New Zealand","here","medical"
"Spa Auckland","-36.84049","174.76534","Auckland Central Auckland 1010 New Zealand","here","shop"
"Margarita's Bar","-36.85006","174.764021","Auckland Central Auckland 1010 New Zealand","here","bar"
"Jason Books","-36.84748","174.76724","Auckland Central Auckland 1010 New Zealand","here","shop"
"Parnell Rise Near Stanley St","-36.850552","174.77462","Auckland Central Auckland 1010 New Zealand","here","delete"
"Swig Cafe","-36.850009","174.764831","Auckland Central Auckland 1010 New Zealand","here","restaurant"
"Fabric","-36.84689","174.76677","Auckland Central Auckland 1010 New Zealand","here","shop"
"Bodybydesign","-36.85642","174.78016","Parnell Auckland 1052 New Zealand","here","office"
"Mayoral Drive Opposite Aut","-36.852702","174.765637","Mayoral Dr Auckland Central Auckland 1010 New Zealand","here","delete"
"A2b Car Rentals","-36.85115","174.77496","Auckland Central Auckland 1010 New Zealand","here","car"
"Seed Credit Limited","-36.84626","174.76639","Auckland Central Auckland 1010 New Zealand","here","office"
"International Art Centre","-36.85628","174.78101","Parnell Auckland 1052 New Zealand","here","activities"
"Beezneez Cafe","-36.84759","174.75928","1 Graham St Auckland Central Auckland 1010 New Zealand","here","cafe"
"BurgerFuel Customs Street","-36.844963","174.767304","Auckland Central Auckland 1010 New Zealand","here","restaurant"
"Whitcoulls","-36.84874","174.7654","203 Queen St Auckland Central Auckland 1010 New Zealand","here","shop"
"Decjuba","-36.847427","174.76681","Auckland Central Auckland 1010 New Zealand","here","shop"
"Hertz","-36.84785","174.759","Auckland Central Auckland 1010 New Zealand","here","car"
"Sebel Quay West Suites","-36.84492","174.76513","Auckland Central Auckland 1010 New Zealand","here","hotel"
"Auckland Hospital","-36.86008","174.77026","Grafton Auckland 1023 New Zealand","here","medical"
"Grand Windsor Hotel Auckland","-36.84556","174.76656","Auckland Central Auckland 1010 New Zealand","here","hotel"
"Yoshizawa","-36.84936","174.76585","Auckland Central Auckland 1010 New Zealand","here","cafe"
"58 Albert St","-36.84683","174.76424","61 Albert St Auckland Central Auckland 1010 New Zealand","here","delete"
"Sentinel Beach Reserve","-36.84335","174.735435","37 Sentinel Rd Herne Bay Auckland 1011 New Zealand","here","park"
"Intercity Bus Terminal","-36.84893","174.76122","Auckland Central Auckland 1010 New Zealand","here","delete"
"Quad Kitchen & Bar","-36.84864","174.77056","Auckland Central Auckland 1010 New Zealand","here","restaurant"
"Embroidme","-36.85189","174.75968","Auckland Central Auckland 1010 New Zealand","here","shop"
"Rogue Pole","-36.85968","174.74497","Grey Lynn Auckland 1021 New Zealand","here","sports"
"Fonterra","-36.84758","174.76943","Auckland Central Auckland 1010 New Zealand","here","office"
"100 Victoria St","-36.84796","174.76082","Auckland Central Auckland 1010 New Zealand","here","delete"
"Wellesley St Near Hobson St","-36.849923","174.761046","Wellesley St W Auckland Central Auckland 1010 New Zealand","here","delete"
"99 Albert St","-36.84879","174.76336","Albert St Auckland Central Auckland 1010 New Zealand","here","delete"
"Sail City Hotel","-36.8497","174.76038","Auckland Central Auckland 1010 New Zealand","here","hotel"
"Sky City Casino","-36.84919","174.7611","Auckland Central Auckland 1010 New Zealand","here","activities"
"Karen Walker","-36.84749","174.76711","Auckland Central Auckland 1010 New Zealand","here","shop"
"Pathfinder Book Shop","-36.85117","174.76556","Auckland Central Auckland 1010 New Zealand","here","shop"
"Fanshawe St Near Bradnor Lane","-36.845482","174.761739","Bradnor Ln Auckland Central Auckland 1010 New Zealand","here","delete"
"84 Wakefield St","-36.85507","174.76574","Grafton Auckland 1023 New Zealand","here","delete"
"Housing New Zealand","-36.85495","174.76016","Auckland Central Auckland 1010 New Zealand","here","government"
"Pathfinder Book Shop","-36.85117","174.76556","Auckland Central Auckland 1010 New Zealand","here","shop"
"The Black Hoof","-36.84734","174.76505","Auckland Central Auckland 1010 New Zealand","here","restaurant"
"Just Laptops","-36.84576","174.7687","Auckland Central Auckland 1010 New Zealand","here","shop"
"Digital Karma","-36.85832","174.76862","Grafton Auckland 1023 New Zealand","here","delete"
"Beanz Cafe","-36.85259","174.76709","Auckland Central Auckland 1010 New Zealand","here","cafe"
"Commerce Commission","-36.84623","174.76454","Auckland Central Auckland 1010 New Zealand","here","government"
"Bianco Off Queen Hotel","-36.85578","174.76411","Grafton Auckland 1023 New Zealand","here","hotel"
"Hertz","-36.84785","174.759","Auckland Central Auckland 1010 New Zealand","here","car"
"Bangkok Restaurant","-36.85076","174.76409","Auckland Central Auckland 1010 New Zealand","here","restaurant"
"220 Victoria St","-36.84811","174.75249","Freemans Bay Auckland 1011 New Zealand","here","delete"
"Tank","-36.84807","174.75865","Auckland Central Auckland 1010 New Zealand","here","restaurant"
"Albert Park","-36.85046","174.76746","Auckland Central Auckland 1010 New Zealand","here","park"
"Brian Moorwood","-36.84762","174.76855","Auckland Central Auckland 1010 New Zealand","here","shop"
"71 Customs St East","-36.8456","174.76941","Auckland Central Auckland 1010 New Zealand","here","delete"
"237 Queen St","-36.84997","174.76491","233-237 Queen St Auckland Central Auckland 1010 New Zealand","here","delete"
"Bluebells Cakery","-36.86195","174.75761","Eden Terrace Auckland 1021 New Zealand","here","cafe"
"Biba Bathrooms","-36.85082","174.77403","Auckland Central Auckland 1010 New Zealand","here","shop"
"Vector Arena","-36.84704","174.77608","Auckland Central Auckland 1010 New Zealand","here","sports"
"Sentinel Beach Reserve","-36.84335","174.735435","37 Sentinel Rd Herne Bay Auckland 1011 New Zealand","here","park"
"Meat Boutique","-36.8511","174.766","1 Kitchener St Auckland Central Auckland 1010 New Zealand","here","shop"
"Ok Gift Shop","-36.84743","174.77592","Auckland Central Auckland 1010 New Zealand","here","shop"
"Easy Lifestyle","-36.86376","174.76885","Grafton Auckland 1023 New Zealand","here","office"
"Beanz Cafe","-36.85259","174.76709","Auckland Central Auckland 1010 New Zealand","here","cafe"
"Mika Styles","-36.84686","174.76693","Auckland Central Auckland 1010 New Zealand","here","office"
"Apple Juice Bar","-36.86814","174.77779","Newmarket Auckland 1023 New Zealand","here","restaurant"
"Jewellery Valuation Centre","-36.84686","174.76771","Auckland Central Auckland 1010 New Zealand","here","shop"
"Margarita's Bar","-36.85006","174.764021","Auckland Central Auckland 1010 New Zealand","here","bar"
"European Antiques & Furnishings","-36.86324","174.74578","Grey Lynn Auckland 1021 New Zealand","here","shop"
"Gymnasium @ Crowne Plaza","-36.849721","174.763113","Auckland Central Auckland 1010 New Zealand","here","sports"
"Balmoral Church of Christ","-36.87937","174.74967","Mount Eden Auckland 1024 New Zealand","here","religion"
"Harbour Royal","-36.84812","174.77319","Auckland Central Auckland 1010 New Zealand","here","residence"
"Ladies Fashion","-36.87871","174.75017","Mount Eden Auckland 1024 New Zealand","here","shop"
"Gauchos","-36.84608","174.76352","Auckland Central Auckland 1010 New Zealand","here","restaurant"
"96 Balmoral Rd","-36.88886","174.75512","Mount Eden Auckland 1024 New Zealand","here","delete"
"Boxing Alley","-36.85214","174.77404","Auckland Central Auckland 1010 New Zealand","here","sports"
"Glengarry","-36.866924","174.774103","Newmarket Auckland 1023 New Zealand","here","bar"
"Wild Bean Cafe","-36.86699","174.77512","Newmarket Auckland 1023 New Zealand","here","cafe"
"Kiwibank","-36.8562","174.76221","Auckland Central Auckland 1010 New Zealand","here","money"
"The Nathan Club","-36.84494","174.76944","Auckland Central Auckland 1010 New Zealand","here","activities"
"Rogue Pole","-36.85968","174.74497","Grey Lynn Auckland 1021 New Zealand","here","sports"
"Photo","-36.84627","174.76816","Auckland Central Auckland 1010 New Zealand","here","shop"
"Andre Garcia Studio","-36.84876","174.78185","Parnell Auckland 1052 New Zealand","here","office"
"Fanshawe St Near Bradnor Lane","-36.845482","174.761739","Bradnor Ln Auckland Central Auckland 1010 New Zealand","here","delete"
"Photo","-36.84627","174.76816","Auckland Central Auckland 1010 New Zealand","here","shop"
"Wilson Parking","-36.85194","174.77588","Parnell Auckland 1052 New Zealand","here","car"
"Interim Task Force","-36.84869","174.76518","Auckland Central Auckland 1010 New Zealand","here","office"
"Cassia","-36.845631","174.767273","Auckland Central Auckland 1010 New Zealand","here","restaurant"
"Fingers Contemporary Jewellery","-36.85063","174.7662","Auckland Central Auckland 1010 New Zealand","here","shop"
"NZ National Maritime Museum","-36.84346","174.76789","Auckland Central Auckland 1010 New Zealand","here","activities"
"A2b Car Rentals","-36.85115","174.77496","Auckland Central Auckland 1010 New Zealand","here","car"
"71 Customs St East","-36.8456","174.76941","Auckland Central Auckland 1010 New Zealand","here","delete"
"Accoths","-36.86479","174.77435","Newmarket Auckland 1023 New Zealand","here","office"
"Bella Cassita","-36.85591","174.78078","Parnell Auckland 1052 New Zealand","here","shop"
"Lululemon","-36.85065","174.744755","Ponsonby Auckland 1011 New Zealand","here","shop"
"Labtests","-36.8436","174.76741","Auckland Central Auckland 1010 New Zealand","here","medical"
"Bay Audiology","-36.86331","174.7807","Parnell Auckland 1052 New Zealand","here","medical"
"Auckland City Council","-36.85317","174.7624","Auckland Central Auckland 1010 New Zealand","here","government"
"Nicholson Panel Beaters","-36.86228","174.75715","Eden Terrace Auckland 1021 New Zealand","here","car"
"Heat Burgers","-36.85468","174.76667","Grafton Auckland 1023 New Zealand","here","restaurant"
"Victoria Street Carpark","-36.84942","174.76666","Auckland Central Auckland 1010 New Zealand","here","car"
"Vector Arena","-36.84704","174.77608","Auckland Central Auckland 1010 New Zealand","here","sports"
"Hanna Match New Zealand","-36.86416","174.75825","Eden Terrace Auckland 1021 New Zealand","here","office"
"Bianco Off Queen Hotel","-36.85578","174.76411","Grafton Auckland 1023 New Zealand","here","hotel"
"Craig Griffin & Lord","-36.87202","174.76178","Mount Eden Auckland 1024 New Zealand","here","office"
"YHA Auckland City","-36.8568","174.76302","11A City Rd Auckland Central Auckland 1010 New Zealand","here","hotel"
"Tribeca","-36.86371","174.78019","540 Parnell Rd Parnell Auckland 1023 New Zealand","here","restaurant"
"Mix Media Events","-36.86852","174.74991","Kingsland Auckland 1021 New Zealand","here","office"
"Symonds St Overbridge","-36.859702","174.762839","Symonds St Grafton Auckland 1010 New Zealand","here","delete"
"Accoths","-36.86479","174.77435","Newmarket Auckland 1023 New Zealand","here","office"
"The Grill","-36.8492","174.7622","Auckland Central Auckland 1010 New Zealand","here","restaurant"
"Eternity Nails","-36.86738","174.77853","Newmarket Auckland 1023 New Zealand","here","office"
"Metropolis Hotel","-36.84876","174.76728","Auckland Central Auckland 1010 New Zealand","here","delete"
"Chapman Onion Exports","-36.84945","174.75371","Auckland Central Auckland 1010 New Zealand","here","shop"
"Easy Lifestyle","-36.86376","174.76885","Grafton Auckland 1023 New Zealand","here","office"
"Elliot Hotel","-36.85059","174.76357","Auckland Central Auckland 1010 New Zealand","here","hotel"
"Sackville Reserve","-36.85544","174.73472","Grey Lynn Auckland 1021 New Zealand","here","park"
"Tournament Parking Railway Campus","-36.84842","174.77665","Auckland Central Auckland 1010 New Zealand","here","car"
"SUBWAY","-36.84705","174.77888","Auckland Central Auckland 1010 New Zealand","here","restaurant"
"Dean Greenwood Swim School","-36.8757","174.75684","Mount Eden Auckland 1024 New Zealand","here","sports"
"Carters","-36.87668","174.73274","14 Taylors Rd Sandringham Auckland 1025 New Zealand","here","shop"
"Auckland Fine Wine Tours","-36.88348","174.74211","Sandringham Auckland 1025 New Zealand","here","activities"
"Mika Styles","-36.84686","174.76693","Auckland Central Auckland 1010 New Zealand","here","office"
"Calcutta Wala","-36.84698","174.76433","Auckland Central Auckland 1010 New Zealand","here","restaurant"
"154 Beach Rd","-36.84994","174.77479","Auckland Central Auckland 1010 New Zealand","here","delete"
"Angies Kitchen","-36.85463","174.7662","Grafton Auckland 1023 New Zealand","here","cafe"
"Decjuba","-36.847427","174.76681","Auckland Central Auckland 1010 New Zealand","here","shop"
"Glengarry","-36.866924","174.774103","Newmarket Auckland 1023 New Zealand","here","bar"
"Brian Moorwood","-36.84762","174.76855","Auckland Central Auckland 1010 New Zealand","here","shop"
"Rose & Thorne Fit Studio","-36.85866","174.76065","Auckland Central Auckland 1010 New Zealand","here","shop"
"Storm","-36.84759","174.76657","Auckland Central Auckland 1010 New Zealand","here","shop"
"Umiya Sushi","-36.84633","174.76591","Swanson St Auckland Central Auckland 1010 New Zealand","here","restaurant"
"Tournament Parking","-36.84754","174.76898","Auckland Central Auckland 1010 New Zealand","here","car"
"Pregnancy Help","-36.84678","174.76379","Auckland Central Auckland 1010 New Zealand","here","medical"
"Tournament Parking","-36.84759","174.7639","Auckland Central Auckland 1010 New Zealand","here","car"
"Storm","-36.84759","174.76657","Auckland Central Auckland 1010 New Zealand","here","shop"
"Greys Ave Deli","-36.85541","174.75964","Auckland Central Auckland 1010 New Zealand","here","restaurant"
"Rations Lunch Bar","-36.85578","174.76673","Grafton Auckland 1023 New Zealand","here","cafe"
"Olympic Cafe","-36.86289","174.76547","Grafton Auckland 1023 New Zealand","here","restaurant"
"The Muddy Farmer Irish Pub","-36.84623","174.76173","Auckland Central Auckland 1010 New Zealand","here","restaurant"
"Polaris 4wd Park","-36.87645","174.74509","Mount Eden Auckland 1024 New Zealand","here","sports"
"Digital Karma","-36.85832","174.76862","Grafton Auckland 1023 New Zealand","here","delete"
"The Muddy Farmer Irish Pub","-36.84623","174.76173","Auckland Central Auckland 1010 New Zealand","here","restaurant"
"Beirut","-36.84599","174.77007","Auckland Central Auckland 1010 New Zealand","here","restaurant"
"Eden Park","-36.87655","174.74547","Mount Eden Auckland 1024 New Zealand","here","sports"
"Corlet Motor Company","-36.84655","174.77084","Auckland Central Auckland 1010 New Zealand","here","car"
"Eden Park","-36.87655","174.74547","Mount Eden Auckland 1024 New Zealand","here","sports"
"Mental Health Foundation","-36.87056","174.76253","Mount Eden Auckland 1024 New Zealand","here","government"
"Firestone","-36.84607","174.75811","Auckland Central Auckland 1010 New Zealand","here","car"
"Simply Thai","-36.87062","174.77849","Newmarket Auckland 1023 New Zealand","here","restaurant"
"Monsoon Poon","-36.84388","174.76373","Auckland Central Auckland 1010 New Zealand","here","restaurant"
"Sukhothai Restaurant & Bar","-36.84764","174.76731","Auckland Central Auckland 1010 New Zealand","here","restaurant"
"Fabric","-36.84689","174.76677","Auckland Central Auckland 1010 New Zealand","here","shop"
"Collectiva","-36.885933","174.760913","Mount Eden Auckland 1024 New Zealand","here","shop"
"Curry Pot","-36.86388","174.77019","Grafton Auckland 1023 New Zealand","here","restaurant"
"Games Workshop","-36.84689","174.76615","Auckland Central Auckland 1010 New Zealand","here","activities"
"Citymed","-36.845","174.76504","Auckland Central Auckland 1010 New Zealand","here","medical"
"Albert Park","-36.85046","174.76746","Auckland Central Auckland 1010 New Zealand","here","park"
"Skin Institute","-36.85396","174.77251","Parnell Auckland 1052 New Zealand","here","medical"
"Commerce St Near Galway St","-36.844466","174.76822","Commerce St Auckland Central Auckland 1010 New Zealand","here","delete"
"Seed Credit Limited","-36.84626","174.76639","Auckland Central Auckland 1010 New Zealand","here","office"
"Albert Park","-36.85046","174.76746","Auckland Central Auckland 1010 New Zealand","here","park"
"Shaky Isles","-36.84499","174.768","Auckland Central Auckland 1010 New Zealand","here","cafe"
"Auckland Fine Wine Tours","-36.88348","174.74211","Sandringham Auckland 1025 New Zealand","here","activities"
"Mayoral Drive Opposite Aut","-36.852702","174.765637","Mayoral Dr Auckland Central Auckland 1010 New Zealand","here","delete"
"The Nathan Club","-36.84494","174.76944","Auckland Central Auckland 1010 New Zealand","here","activities"
"Personal Best","-36.87158","174.77951","Remuera Auckland 1050 New Zealand","here","shop"
"The Village Vehicle Centre","-36.85133","174.77268","Auckland Central Auckland 1010 New Zealand","here","car"
"Crawford and Walker Customs Brokers","-36.84417","174.77475","Auckland Central Auckland 1010 New Zealand","here","office"
"Pizza Hut","-36.87141","174.77933","Remuera Auckland 1050 New Zealand","here","restaurant"
"Alten Reserve","-36.85082","174.77398","Auckland Central Auckland 1010 New Zealand","here","park"
"Ponsonby Plant Centre","-36.85129","174.74449","Ponsonby Auckland 1011 New Zealand","here","shop"
"Asb","-36.85102","174.7714","Auckland Central Auckland 1010 New Zealand","here","money"
"Alexander communications","-36.86741","174.77326","Epsom Auckland 1023 New Zealand","here","office"
"University Bookshop","-36.85179","174.77011","Auckland Central Auckland 1010 New Zealand","here","shop"
"City Towers","-36.86712","174.77237","Epsom Auckland 1023 New Zealand","here","hotel"
"Eden Espresso Bar","-36.870683","174.761092","Mount Eden Auckland 1024 New Zealand","here","cafe"
"Asb","-36.85102","174.7714","Auckland Central Auckland 1010 New Zealand","here","money"
"Barkers","-36.8469","174.76681","7 High St Auckland Central Auckland 1010 New Zealand","here","shop"
"Aoga FAA Samoa","-36.85614","174.73948","Ponsonby Auckland 1011 New Zealand","here","education"
"Bank Of New Zealand CBD","-36.84624","174.76748","Auckland Central Auckland 1010 New Zealand","here","money"
"The Nathan Club","-36.84494","174.76944","Auckland Central Auckland 1010 New Zealand","here","activities"
"Brian Moorwood","-36.84762","174.76855","Auckland Central Auckland 1010 New Zealand","here","shop"
"The Coffee Club","-36.84814","174.76656","Auckland Central Auckland 1010 New Zealand","here","restaurant"
"St Lukes Veterinary Centre","-36.87667","174.73545","Sandringham Auckland 1025 New Zealand","here","office"
"Curate","-36.84436","174.76828","Auckland Central Auckland 1010 New Zealand","here","shop"
"Fabric","-36.84689","174.76677","Auckland Central Auckland 1010 New Zealand","here","shop"
"Wilson Parking","-36.85035","174.76633","Auckland Central Auckland 1010 New Zealand","here","car"
"Queen St Opposite Cpo","-36.84431","174.76794","Auckland Central Auckland 1010 New Zealand","here","delete"
"Wild Poppies Flowers","-36.86383","174.74732","Grey Lynn Auckland 1021 New Zealand","here","shop"
"Mvu","-36.85441","174.76449","Auckland Central Auckland 1010 New Zealand","here","cafe"
"Go Global Course","-36.852675","174.764125","Auckland Central Auckland 1010 New Zealand","here","education"
"RJB Design","-36.84494","174.76783","Auckland Central Auckland 1010 New Zealand","here","shop"
"Yoshizawa","-36.84936","174.76585","Auckland Central Auckland 1010 New Zealand","here","cafe"
"Acg New Zealand International College","-36.85435","174.76226","Auckland Central Auckland 1010 New Zealand","here","education"
"Lulu Accupuncture","-36.85498","174.76503","Auckland Central Auckland 1010 New Zealand","here","medical"
"Seaview Apartments","-36.84735","174.7717","Auckland Central Auckland 1010 New Zealand","here","residence"
"Mayoral Dr Overbridge","-36.854194","174.76272","Auckland Central Auckland 1010 New Zealand","here","delete"
"Battatrans International","-36.84741","174.77157","Auckland Central Auckland 1010 New Zealand","here","shop"
"The Crescent","-36.84793","174.7714","Auckland Central Auckland 1010 New Zealand","here","hotel"
"Northern Health School","-36.86065","174.7699","Grafton Auckland 1023 New Zealand","here","education"
"Asb","-36.85102","174.7714","Auckland Central Auckland 1010 New Zealand","here","money"
"Tournament Parking","-36.84741","174.76946","Auckland Central Auckland 1010 New Zealand","here","car"
"Spork","-36.84499","174.768555","Auckland Central Auckland 1010 New Zealand","here","office"
"Northern Health School","-36.86065","174.7699","Grafton Auckland 1023 New Zealand","here","education"
"Bank Of New Zealand CBD","-36.84624","174.76748","Auckland Central Auckland 1010 New Zealand","here","money"
"Morningside Kindergarten","-36.87716","174.73248","Sandringham Auckland 1025 New Zealand","here","education"
"Symonds Street Medical Clinic","-36.85628","174.76576","Grafton Auckland 1023 New Zealand","here","medical"
"Porter's Original Paints","-36.84821","174.77327","Auckland Central Auckland 1010 New Zealand","here","shop"
"The Glass Goose","-36.848583","174.76262","Auckland Central Auckland 1010 New Zealand","here","restaurant"
"Copthorne","-36.84946","174.77336","Auckland Central Auckland 1010 New Zealand","here","hotel"
"Mayoral Drive Opposite Aotea Centre","-36.851874","174.761027","Mayoral Dr Auckland Central Auckland 1010 New Zealand","here","delete"
"The One Food Market","-36.85504","174.76271","Auckland Central Auckland 1010 New Zealand","here","grocery"
"Mayoral Drive Opposite Aotea Centre","-36.851874","174.761027","Mayoral Dr Auckland Central Auckland 1010 New Zealand","here","delete"
"247Moneybox","-36.85511","174.76242","Auckland Central Auckland 1010 New Zealand","here","office"
"St Matthew Anglican Church","-36.85007","174.76073","Auckland Central Auckland 1010 New Zealand","here","religion"
"84 Williamson Ave","-36.86187","174.74313","Grey Lynn Auckland 1021 New Zealand","here","delete"
"Alexander communications","-36.86741","174.77326","Epsom Auckland 1023 New Zealand","here","office"
"Edo Bento","-36.84864","174.76395","Auckland Central Auckland 1010 New Zealand","here","restaurant"
"Social Cooking","-36.85107","174.758399","Auckland Central Auckland 1010 New Zealand","here","education"
"BBQ King","-36.84816","174.7652","Auckland Central Auckland 1010 New Zealand","here","restaurant"
"Wilsons Parking","-36.84881","174.75238","Freemans Bay Auckland 1011 New Zealand","here","car"
"The Corrective Clinic","-36.84891","174.75829","Auckland Central Auckland 1010 New Zealand","here","medical"
"Deng Deng","-36.84817","174.76704","Auckland Central Auckland 1010 New Zealand","here","restaurant"
"John Andrew Mazda Auckland","-36.8607","174.75155","Grey Lynn Auckland 1021 New Zealand","here","car"
"194 Great North Rd","-36.863756","174.748074","Grey Lynn Auckland 1021 New Zealand","here","delete"
"Sarah Grey - Fashion Accessories","-36.86337","174.78025","Parnell Auckland 1052 New Zealand","here","shop"
"Live & Let Dye","-36.882778","174.762238","Mount Eden Auckland 1024 New Zealand","here","office"
"King Living","-36.86255","174.78118","Parnell Auckland 1052 New Zealand","here","shop"
"Sackville Reserve","-36.85544","174.73472","Grey Lynn Auckland 1021 New Zealand","here","park"
"Andrea Moore","-36.86925","174.77743","Newmarket Auckland 1023 New Zealand","here","shop"
"Auckland Domain-Gate 5","-36.85532","174.77133","Grafton Auckland 1023 New Zealand","here","park"
"Auckland Bowling Club","-36.85532","174.77111","Grafton Auckland 1023 New Zealand","here","sports"
"Lion Nathan Breweies- Auckland","-36.86653","174.7736","Newmarket Auckland 1023 New Zealand","here","activities"
"135 Mountain Rd","-36.87615","174.77032","Epsom Auckland 1023 New Zealand","here","delete"
"Mt Eden Picture Framers Gallery","-36.88301","174.76149","Mount Eden Auckland 1024 New Zealand","here","office"
"Sable & Bean Cafe","-36.84562","174.76563","Mills Ln Auckland Central Auckland 1010 New Zealand","here","cafe"
"Quick Quality Cut","-36.84504","174.76723","Auckland Central Auckland 1010 New Zealand","here","office"
"Slingshot","-36.856858","174.765125","Grafton Auckland 1023 New Zealand","here","delete"
"New Zealand Film Academy","-36.85573","174.76517","Grafton Auckland 1023 New Zealand","here","education"
"Opposite 8 Grafton Rd","-36.85242","174.77059","8 Grafton Rd Auckland Central Auckland 1010 New Zealand","here","delete"
"Tournament Parking","-36.85569","174.76524","Grafton Auckland 1023 New Zealand","here","car"
"YHA Auckland City","-36.8568","174.76302","11A City Rd Auckland Central Auckland 1010 New Zealand","here","hotel"
"Whitespace Contemporary Art","-36.85946","174.74968","12 Crummer Rd Grey Lynn Auckland 1021 New Zealand","here","activities"
"Peel St Dairy","-36.85578","174.72999","Westmere Auckland 1022 New Zealand","here","grocery"
"French Country Collections","-36.85995","174.74955","Grey Lynn Auckland 1021 New Zealand","here","shop"
"Tournament Parking","-36.84754","174.76898","Auckland Central Auckland 1010 New Zealand","here","car"
"Excellent International Academy","-36.85506","174.76392","Auckland Central Auckland 1010 New Zealand","here","education"
"Charter Boats NZ - Private Tours","-36.84203","174.74648","103 Westhaven Dr St Marys Bay Auckland 1011 New Zealand","here","activities"
"Visique Optometrists","-36.85514","174.73066","Westmere Auckland 1022 New Zealand","here","medical"
"Wilson","-36.84619","174.75735","Auckland Central Auckland 1010 New Zealand","here","car"
"Andrew Andrew","-36.842548","174.764636","Auckland Central Auckland 1010 New Zealand","here","activities"
"Portofino","-36.8431","174.76279","Auckland Central Auckland 1010 New Zealand","here","restaurant"
"Columbus Coffee","-36.845","174.7542","2 Daldy St Auckland Central Auckland 1010 New Zealand","here","cafe"
"Newmarket Auto Repairs","-36.87332","174.77815","Newmarket Auckland 1023 New Zealand","here","car"
"Swansons Sandwich Bar","-36.84618","174.76503","Auckland Central Auckland 1010 New Zealand","here","restaurant"
"Natural Healthcare","-36.85075","174.76392","Auckland Central Auckland 1010 New Zealand","here","shop"
"Mt Eden Swimming Pool","-36.87505","174.75719","Mount Eden Auckland 1024 New Zealand","here","park"
"Shoe Clinic","-36.85617","174.74669","Ponsonby Auckland 1011 New Zealand","here","shop"
"Kangoo Animation","-36.86193","174.76581","Grafton Auckland 1023 New Zealand","here","office"
"Fonterra","-36.84758","174.76943","Auckland Central Auckland 1010 New Zealand","here","office"
"Morningside Kindergarten","-36.87716","174.73248","Sandringham Auckland 1025 New Zealand","here","education"
"Ros Bake","-36.87136","174.77908","Remuera Auckland 1050 New Zealand","here","cafe"
"NZ College of Sport & Education","-36.85984","174.74911","Grey Lynn Auckland 1021 New Zealand","here","education"
"Systems","-36.86688","174.77445","Newmarket Auckland 1023 New Zealand","here","shop"
"Total Automotive","-36.85955","174.74795","Grey Lynn Auckland 1021 New Zealand","here","car"
"Pure SEO","-36.84783","174.75124","St Marys Bay Auckland 1011 New Zealand","here","office"
"Wilsons Parking","-36.84881","174.75238","Freemans Bay Auckland 1011 New Zealand","here","car"
"Modern Earth","-36.8512","174.75819","Auckland Central Auckland 1010 New Zealand","here","shop"
"Viz Cafe","-36.84628","174.76857","Auckland Central Auckland 1010 New Zealand","here","cafe"
"Huffer","-36.871201","174.778202","Newmarket Auckland 1023 New Zealand","here","shop"
"The Crescent","-36.84793","174.7714","Auckland Central Auckland 1010 New Zealand","here","hotel"
"Citta Design Pop Up","-36.84483","174.76909","5B Gore St Auckland Central Auckland 1010 New Zealand","here","shop"
"Shaky Isles","-36.84499","174.768","Auckland Central Auckland 1010 New Zealand","here","cafe"
"The Crescent","-36.84793","174.7714","Auckland Central Auckland 1010 New Zealand","here","hotel"
"Fanshawe St Near Bradnor Lane","-36.845482","174.761739","Bradnor Ln Auckland Central Auckland 1010 New Zealand","here","delete"
"Eden Espresso Bar","-36.870683","174.761092","Mount Eden Auckland 1024 New Zealand","here","cafe"
"Basque Park","-36.864437","174.757362","Eden Terrace Auckland 1021 New Zealand","here","park"
"Mt Eden Wines and Spirits","-36.8715","174.76172","Mount Eden Auckland 1024 New Zealand","here","shop"
"Crystal Palace","-36.88573","174.76113","Mount Eden Auckland 1024 New Zealand","here","activities"
"Opposite 103 Wellesley St West","-36.84946","174.759269","Nelson St Auckland Central Auckland 1010 New Zealand","here","delete"
"Cuty Star","-36.85513","174.76713","Grafton Auckland 1023 New Zealand","here","grocery"
"Sunbeam Victa Corporation","-36.8674","174.7709","Epsom Auckland 1023 New Zealand","here","shop"
"Tai Ping Trading Co","-36.848","174.77415","Auckland Central Auckland 1010 New Zealand","here","restaurant"
"Alexander communications","-36.86741","174.77326","Epsom Auckland 1023 New Zealand","here","office"
"Mix Media Events","-36.86852","174.74991","Kingsland Auckland 1021 New Zealand","here","office"
"Glengarry","-36.866924","174.774103","Newmarket Auckland 1023 New Zealand","here","bar"
"Hollywood Props & Sales NZ","-36.85031","174.75643","Auckland Central Auckland 1010 New Zealand","here","office"
"Brownstone Restaurant","-36.85733","174.74798","Grey Lynn Auckland 1021 New Zealand","here","restaurant"
"Caltex","-36.86091","174.76882","Grafton Auckland 1023 New Zealand","here","car"
"Northern Health School","-36.86065","174.7699","Grafton Auckland 1023 New Zealand","here","education"
"City Groove Backpackers","-36.85021","174.77361","Auckland Central Auckland 1010 New Zealand","here","hotel"
"Great North Rd Near Western Springs Park","-36.86815","174.72473","868 Great North Rd Western Springs Auckland 1022 New Zealand","here","delete"
"Tai Ping Trading Co","-36.848","174.77415","Auckland Central Auckland 1010 New Zealand","here","restaurant"
"Unilodge Beach Road","-36.84922","174.77453","Auckland Central Auckland 1010 New Zealand","here","residence"
"Cardmember Wines","-36.87055","174.76383","Mount Eden Auckland 1024 New Zealand","here","shop"
"13 Franklin Rd","-36.85312","174.74662","Freemans Bay Auckland 1011 New Zealand","here","delete"
"Lion Nathan Breweies- Auckland","-36.86653","174.7736","Newmarket Auckland 1023 New Zealand","here","activities"
"Vector Arena","-36.84704","174.77608","Auckland Central Auckland 1010 New Zealand","here","sports"
"Auckland Frameless Designer Glass","-36.84304","174.76527","Auckland Central Auckland 1010 New Zealand","here","office"
"Barbara Johnson USA Immigration Attorney","-36.8445","174.76503","Auckland Central Auckland 1010 New Zealand","here","office"
"WOOP","-36.84496","174.7653","Auckland Central Auckland 1010 New Zealand","here","restaurant"
"Royal Oak Dental Clinic","-36.85598","174.76619","Grafton Auckland 1023 New Zealand","here","medical"
"Campus Pharmacy","-36.851835","174.770165","Auckland Central Auckland 1010 New Zealand","here","shop"
"Lauren Dresher","-36.86151","174.74343","Grey Lynn Auckland 1021 New Zealand","here","medical"
"112 Williamson Ave","-36.86323","174.74101","Grey Lynn Auckland 1021 New Zealand","here","delete"
"Exquisite Laser Clinic","-36.8613","174.78212","Parnell Auckland 1052 New Zealand","here","medical"
"Lower Albert St Near Customs St","-36.84386","174.76551","33 Lower Albert St Auckland Central Auckland 1010 New Zealand","here","delete"
"Grand Central","-36.85695","174.74762","Freemans Bay Auckland 1011 New Zealand","here","restaurant"
"Pop-up Globe Theatre","-36.85363","174.76216","Auckland Central Auckland 1010 New Zealand","here","activities"
"Elite Event: The Icing On The Cake","-36.85379","174.74582","Ponsonby Auckland 1011 New Zealand","here","activities"
"Housing New Zealand","-36.85495","174.76016","Auckland Central Auckland 1010 New Zealand","here","government"
"Tournament Parking","-36.854","174.76136","Auckland Central Auckland 1010 New Zealand","here","car"
"Automasters","-36.86851","174.75232","Kingsland Auckland 1021 New Zealand","here","car"
"Nosh Food Market","-36.8513","174.74471","223 Ponsonby Rd Ponsonby Auckland 1011 New Zealand","here","shop"
"Newstalk ZB","-36.85156","174.7589","Auckland Central Auckland 1010 New Zealand","here","delete"
"The Crescent","-36.84793","174.7714","Auckland Central Auckland 1010 New Zealand","here","hotel"
"Fonterra","-36.84758","174.76943","Auckland Central Auckland 1010 New Zealand","here","office"
"Just Laptops","-36.86267","174.75611","Eden Terrace Auckland 1021 New Zealand","here","shop"
"Piano Traders","-36.87061","174.76084","Mount Eden Auckland 1024 New Zealand","here","shop"
"84 Williamson Ave","-36.86187","174.74313","Grey Lynn Auckland 1021 New Zealand","here","delete"
"84 Williamson Ave","-36.86187","174.74313","Grey Lynn Auckland 1021 New Zealand","here","delete"
"Auckland University & Epsom Judo Club","-36.88559","174.77206","Epsom Auckland 1023 New Zealand","here","sports"
"The Salvation Army","-36.87778","174.7779","18 Margot St Epsom Auckland 1051 New Zealand","here","medical"
"City Electrical","-36.84888","174.75258","Freemans Bay Auckland 1011 New Zealand","here","office"
"Kings Bridge Appartments","-36.84937","174.7593","63 Nelson St Auckland Central Auckland 1010 New Zealand","here","residence"
"Newstalk ZB","-36.85156","174.7589","Auckland Central Auckland 1010 New Zealand","here","delete"
"Jim Hull Astrologer","-36.84945","174.75154","Freemans Bay Auckland 1011 New Zealand","here","car"
"The Clare Inn","-36.8771844","174.7507928","Mount Eden Auckland 1024 New Zealand","osm","bar"
"Dominion Road Postshop","-36.8801299","174.7495053","Mount Eden Auckland 1024 New Zealand","osm","government"
"The Edinburgh Castle","-36.8639089","174.7607398","Eden Terrace Auckland 1021 New Zealand","osm","bar"
"The Albion","-36.8495882","174.7606794","Auckland Central Auckland 1010 New Zealand","osm","bar"
"Danny Doolan's","-36.8426509","174.7637436","Auckland Central Auckland 1010 New Zealand","osm","bar"
"Rialto Newmarket","-36.8683617","174.7775985","Newmarket Auckland 1023 New Zealand","osm","activities"
"The Claddagh","-36.8722313","174.7772958","Newmarket Auckland 1023 New Zealand","osm","bar"
"Jax Munster Inn","-36.8506597","174.7643444","Auckland Central Auckland 1010 New Zealand","osm","restaurant"
"Globe Bar","-36.8496001","174.7644251","Auckland Central Auckland 1010 New Zealand","osm","bar"
"The Loaded Hog","-36.8431068","174.7634056","Auckland Central Auckland 1010 New Zealand","osm","bar"
"Fox's","-36.8433408","174.7633464","Auckland Central Auckland 1010 New Zealand","osm","bar"
"Auckland Central Library","-36.8517246","174.7653992","Auckland Central Auckland 1010 New Zealand","osm","education"
"Event Cinemas","-36.8661991","174.7783286","Newmarket Auckland 1023 New Zealand","osm","activities"
"The Empire","-36.8474612","174.7598806","Auckland Central Auckland 1010 New Zealand","osm","bar"
"Westpac Dominion Road","-36.8750629","174.7515416","Mount Eden Auckland 1024 New Zealand","osm","money"
"Central Auckland Police Station","-36.852036","174.7603682","Auckland Central Auckland 1010 New Zealand","osm","government"
"Mobil","-36.8740587","174.741813","Mount Eden Auckland 1024 New Zealand","osm","car"
"Gull","-36.8706483","174.7485282","Kingsland Auckland 1021 New Zealand","osm","car"
"ANZ","-36.8760793","174.7508298","Mount Eden Auckland 1024 New Zealand","osm","money"
"The King's Arms","-36.8613634","174.7578395","Eden Terrace Auckland 1021 New Zealand","osm","bar"
"De Post","-36.8824375","174.7623112","Mount Eden Auckland 1024 New Zealand","osm","bar"
"Parnell Library","-36.863294","174.7800547","Parnell Auckland 1052 New Zealand","osm","education"
"Face Television","-36.8634515","174.7367472","Grey Lynn Auckland 1021 New Zealand","osm","delete"
"The Sprig and Fern","-36.8486186","174.7558348","Auckland Central Auckland 1010 New Zealand","osm","bar"
"The Fiddler","-36.8482271","174.7629931","Auckland Central Auckland 1010 New Zealand","osm","bar"
"Cafe Della Piazza","-36.8464595","174.7615393","Auckland Central Auckland 1010 New Zealand","osm","cafe"
"The Strand Tavern","-36.851195","174.7754699","Auckland Central Auckland 1010 New Zealand","osm","bar"
"Mo's","-36.8449243","174.7639356","Auckland Central Auckland 1010 New Zealand","osm","bar"
"Father Ted's","-36.8506029","174.764164","Auckland Central Auckland 1010 New Zealand","osm","bar"
"Shadows","-36.8521963","174.7686186","Auckland Central Auckland 1010 New Zealand","osm","bar"
"Bluestone Room","-36.8476285","174.7647051","Auckland Central Auckland 1010 New Zealand","osm","bar"
"Deschlers","-36.8474709","174.766505","Auckland Central Auckland 1010 New Zealand","osm","bar"
"Rakinos","-36.8477319","174.7663956","Auckland Central Auckland 1010 New Zealand","osm","bar"
"Crow Bar","-36.8471893","174.764739","Auckland Central Auckland 1010 New Zealand","osm","bar"
"Shakepeare's Tavern","-36.8466908","174.7640745","Auckland Central Auckland 1010 New Zealand","osm","bar"
"QF Tavern","-36.8468658","174.7657817","Auckland Central Auckland 1010 New Zealand","osm","bar"
"Queensferry Tavern","-36.8470596","174.7665237","Auckland Central Auckland 1010 New Zealand","osm","bar"
"The Occidental","-36.8469901","174.7662754","Auckland Central Auckland 1010 New Zealand","osm","bar"
"Vulture's Lane","-36.8470128","174.7663922","Auckland Central Auckland 1010 New Zealand","osm","bar"
"Brooklyn","-36.8518185","174.7642669","Auckland Central Auckland 1010 New Zealand","osm","bar"
"The Playhouse","-36.8517086","174.7634687","Auckland Central Auckland 1010 New Zealand","osm","bar"
"Canoe Bar","-36.8489133","174.7616749","Auckland Central Auckland 1010 New Zealand","osm","bar"
"Margheritas","-36.8496894","174.764121","Auckland Central Auckland 1010 New Zealand","osm","bar"
"The Station","-36.8490297","174.773737","Auckland Central Auckland 1010 New Zealand","osm","restaurant"
"The Waterfront","-36.8421767","174.7636575","Auckland Central Auckland 1010 New Zealand","osm","bar"
"Degree","-36.8425617","174.7635157","Auckland Central Auckland 1010 New Zealand","osm","bar"
"O' Hagan's","-36.8431162","174.7621555","Auckland Central Auckland 1010 New Zealand","osm","bar"
"Jokers","-36.8454447","174.7675886","Auckland Central Auckland 1010 New Zealand","osm","bar"
"The Brewery Britomart","-36.8455533","174.7689513","Auckland Central Auckland 1010 New Zealand","osm","bar"
"Boogie Wonderland","-36.844435","174.7670393","Auckland Central Auckland 1010 New Zealand","osm","activities"
"Muddy Farmer","-36.846374","174.761989","Auckland Central Auckland 1010 New Zealand","osm","bar"
"Tony's","-36.85055","174.7657656","Auckland Central Auckland 1010 New Zealand","osm","restaurant"
"Tony's","-36.8503714","174.7633281","Auckland Central Auckland 1010 New Zealand","osm","restaurant"
"ANZ","-36.8500081","174.7650348","Auckland Central Auckland 1010 New Zealand","osm","money"
"Westpac","-36.849822","174.7648558","Auckland Central Auckland 1010 New Zealand","osm","money"
"Code","-36.8466144","174.7667441","Auckland Central Auckland 1010 New Zealand","osm","bar"
"Corner Bar","-36.8466625","174.7670016","Auckland Central Auckland 1010 New Zealand","osm","bar"
"The Dominion","-36.8758909","174.7512127","Mount Eden Auckland 1024 New Zealand","osm","bar"
"Yum Cha","-36.8452459","174.7708843","Auckland Central Auckland 1010 New Zealand","osm","restaurant"
"Revive","-36.8506473","174.7653453","Auckland Central Auckland 1010 New Zealand","osm","restaurant"
"Revive","-36.8458652","174.7672249","Auckland Central Auckland 1010 New Zealand","osm","restaurant"
"ANZ","-36.8491502","174.7650617","Auckland Central Auckland 1010 New Zealand","osm","money"
"ANZ","-36.8488141","174.7651897","Auckland Central Auckland 1010 New Zealand","osm","money"
"Victoria Street Bistro","-36.8474486","174.7604337","Auckland Central Auckland 1010 New Zealand","osm","cafe"
"Devils Square","-36.8554842","174.7752113","Parnell Auckland 1010 New Zealand","osm","car"
"The Wintergarden Pavillion","-36.859602","174.7738947","Parnell Auckland 1052 New Zealand","osm","restaurant"
"Hell Pizza","-36.8627702","174.7615868","Grafton Auckland 1023 New Zealand","osm","restaurant"
"KFC","-36.8476396","174.7800576","Auckland Central Auckland 1010 New Zealand","osm","restaurant"
"McDonald's","-36.8475056","174.7796995","Auckland Central Auckland 1010 New Zealand","osm","restaurant"
"Pizza Hut","-36.847633","174.780259","Auckland Central Auckland 1010 New Zealand","osm","restaurant"
"Hell Pizza","-36.847868","174.7811213","Auckland Central Auckland 1010 New Zealand","osm","restaurant"
"Birdcage Tavern","-36.8485873","174.752974","Freemans Bay Auckland 1011 New Zealand","osm","bar"
"Malt","-36.8587795","174.7313101","Grey Lynn Auckland 1021 New Zealand","osm","bar"
"The Dog's Bollix Pub (BTC ATM)","-36.8599089","174.7531083","Auckland Central Auckland 1010 New Zealand","osm","money"
"Family","-36.8578046","174.7586636","Auckland Central Auckland 1010 New Zealand","osm","activities"
"The Cavalier","-36.8480581","174.7466291","Freemans Bay Auckland 1011 New Zealand","osm","bar"
"Tournament Parking","-36.8609058","174.759601","Eden Terrace Auckland 1021 New Zealand","osm","car"
"The Little Cake Kitchen","-36.860947","174.7601417","Eden Terrace Auckland 1021 New Zealand","osm","cafe"
"Sweat Shop","-36.8491554","174.756525","Auckland Central Auckland 1010 New Zealand","osm","bar"
"Harry's Place","-36.8590832","174.7827591","Parnell Auckland 1052 New Zealand","osm","bar"
"Mobil","-36.859232","174.7528916","Freemans Bay Auckland 1011 New Zealand","osm","car"
"Benediction","-36.8625475","174.7602244","Eden Terrace Auckland 1021 New Zealand","osm","cafe"
"Avis Auckland Downtown","-36.8463232","174.760517","Auckland Central Auckland 1010 New Zealand","osm","car"
"Windsor Castle","-36.8535279","174.7794421","Parnell Auckland 1052 New Zealand","osm","bar"
"Juice Bar","-36.8537098","174.7795369","Parnell Auckland 1052 New Zealand","osm","bar"
"Pearl Garden Restaurant","-36.8692638","174.7772408","Newmarket Auckland 1023 New Zealand","osm","restaurant"
"Portofino","-36.8433261","174.7628007","Auckland Central Auckland 1010 New Zealand","osm","bar"
"Mecca","-36.8434076","174.7630044","Auckland Central Auckland 1010 New Zealand","osm","restaurant"
"Soul Bar and Bistro","-36.8434333","174.7631439","Auckland Central Auckland 1010 New Zealand","osm","bar"
"Provedor","-36.8423001","174.7650376","Auckland Central Auckland 1010 New Zealand","osm","bar"
"Andrew Andrew","-36.8422528","174.7646085","Auckland Central Auckland 1010 New Zealand","osm","bar"
"Lenin","-36.8421283","174.7647587","Auckland Central Auckland 1010 New Zealand","osm","bar"
"Mexicali","-36.8421455","174.7649733","Auckland Central Auckland 1010 New Zealand","osm","restaurant"
"Mamata Bakery","-36.8586363","174.7302193","Grey Lynn Auckland 1021 New Zealand","osm","cafe"
"The Little Grocer","-36.8556336","174.7298095","Westmere Auckland 1022 New Zealand","osm","cafe"
"Newmarket Police Station","-36.8711406","174.7793304","Remuera Auckland 1050 New Zealand","osm","government"
"Tabac","-36.8455778","174.7658091","Auckland Central Auckland 1010 New Zealand","osm","bar"
"Toast Cafe","-36.8448383","174.7578505","Auckland Central Auckland 1010 New Zealand","osm","restaurant"
"Z","-36.8446844","174.7735219","Auckland Central Auckland 1010 New Zealand","osm","car"
"Grey Lynn Library","-36.8673212","174.7388822","Grey Lynn Auckland 1021 New Zealand","osm","education"
"Kermadec","-36.8428165","174.7635404","Auckland Central Auckland 1010 New Zealand","osm","restaurant"
"Epsom Anaesthetic Group","-36.8735414","174.7828047","Remuera Auckland 1050 New Zealand","osm","medical"
"BP","-36.8671918","174.7750447","Newmarket Auckland 1023 New Zealand","osm","car"
"Pizza Pizza","-36.8517369","174.7642966","Auckland Central Auckland 1010 New Zealand","osm","restaurant"
"White Cross Medical Centre","-36.8535586","174.7452973","Ponsonby Auckland 1011 New Zealand","osm","medical"
"Bank of New Zealand","-36.8773923","174.7503749","Mount Eden Auckland 1024 New Zealand","osm","money"
"Handmade Burgers","-36.8717022","174.7452803","Kingsland Auckland 1021 New Zealand","osm","restaurant"
"Symonds Street Dental","-36.8571131","174.7646126","Grafton Auckland 1023 New Zealand","osm","medical"
"Agnes Curran","-36.8535329","174.7457684","Ponsonby Auckland 1011 New Zealand","osm","cafe"
"Caltex","-36.8741803","174.7775535","Epsom Auckland 1023 New Zealand","osm","car"
"ASB","-36.8465735","174.7626879","Auckland Central Auckland 1010 New Zealand","osm","money"
"ASB","-36.8490498","174.7661096","Auckland Central Auckland 1010 New Zealand","osm","money"
"Saint Patrick's Medical and Dental","-36.8467241","174.7637889","Auckland Central Auckland 1010 New Zealand","osm","medical"
"ANZ","-36.857892","174.7576422","Auckland Central Auckland 1010 New Zealand","osm","money"
"Bank of New Zealand","-36.8586533","174.7541785","Auckland Central Auckland 1010 New Zealand","osm","money"
"Bank of New Zealand","-36.8576094","174.7576645","Auckland Central Auckland 1010 New Zealand","osm","money"
"ASB","-36.857444","174.7483407","Grey Lynn Auckland 1021 New Zealand","osm","money"
"ASB","-36.8580871","174.761532","Auckland Central Auckland 1010 New Zealand","osm","money"
"KFC","-36.8521537","174.7448482","Ponsonby Auckland 1011 New Zealand","osm","restaurant"
"Westpac","-36.8577691","174.7587942","Auckland Central Auckland 1010 New Zealand","osm","money"
"Sitting Duck Cafe","-36.8353777","174.7433471","Westhaven Auckland 1011 New Zealand","osm","cafe"
"Sails Restaurant","-36.8390261","174.7432756","St Marys Bay Auckland 1011 New Zealand","osm","restaurant"
"Westpac","-36.854722","174.745807","Ponsonby Auckland 1011 New Zealand","osm","money"
"ANZ","-36.8580302","174.7609565","Auckland Central Auckland 1010 New Zealand","osm","money"
"Quickcash","-36.8577849","174.7579899","Auckland Central Auckland 1010 New Zealand","osm","money"
"Bank of New Zealand","-36.8577737","174.7609152","Auckland Central Auckland 1010 New Zealand","osm","money"
"Z","-36.8629924","174.757877","Eden Terrace Auckland 1021 New Zealand","osm","car"
"Westpac","-36.8452972","174.7662372","Auckland Central Auckland 1010 New Zealand","osm","money"
"ANZ","-36.8453694","174.7647435","Auckland Central Auckland 1010 New Zealand","osm","money"
"ASB","-36.8570656","174.7652211","Grafton Auckland 1023 New Zealand","osm","money"
"National Bank","-36.845043","174.7663267","Auckland Central Auckland 1010 New Zealand","osm","money"
"Westpac","-36.8457572","174.7663937","Auckland Central Auckland 1010 New Zealand","osm","money"
"Billfish Cafe","-36.8422905","174.7505507","St Marys Bay Auckland 1011 New Zealand","osm","cafe"
"Swashbucklers","-36.8438872","174.7517677","Auckland Central Auckland 1010 New Zealand","osm","bar"
"ANZ","-36.8636339","174.7608184","Eden Terrace Auckland 1021 New Zealand","osm","money"
"ASB","-36.8442366","174.7662676","Auckland Central Auckland 1010 New Zealand","osm","money"
"ASB","-36.8483379","174.7626518","Auckland Central Auckland 1010 New Zealand","osm","money"
"ASB","-36.8501532","174.7621733","Auckland Central Auckland 1010 New Zealand","osm","money"
"Myers Kindergarten","-36.8555217","174.7615939","Auckland Central Auckland 1010 New Zealand","osm","education"
"BNZ","-36.8469618","174.7661003","Auckland Central Auckland 1010 New Zealand","osm","money"
"National Bank","-36.8471039","174.7660099","Auckland Central Auckland 1010 New Zealand","osm","money"
"ASB","-36.8422693","174.7633072","Auckland Central Auckland 1010 New Zealand","osm","money"
"Olli Onda Cafe","-36.8681057","174.7514519","Kingsland Auckland 1021 New Zealand","osm","cafe"
"BNZ","-36.8459796","174.7664425","Auckland Central Auckland 1010 New Zealand","osm","money"
"Westpac","-36.84588","174.7698494","Auckland Central Auckland 1010 New Zealand","osm","money"
"Verona Bar and Restaurant","-36.8577552","174.7604285","Auckland Central Auckland 1010 New Zealand","osm","restaurant"
"Countdown","-36.8706456","174.7763303","Newmarket Auckland 1023 New Zealand","osm","grocery"
"Westpac","-36.8655652","174.7377372","Grey Lynn Auckland 1021 New Zealand","osm","money"
"Fu Bar","-36.8451655","174.7646604","Auckland Central Auckland 1010 New Zealand","osm","bar"
"TSB Bank","-36.8506747","174.7646895","Auckland Central Auckland 1010 New Zealand","osm","money"
"Caltex","-36.8680932","174.7284737","Western Springs Auckland 1022 New Zealand","osm","car"
"Oh!So","-36.8600357","174.7484199","Grey Lynn Auckland 1021 New Zealand","osm","cafe"
"Auckland Fish Market","-36.8410267","174.756546","Auckland Central Auckland 1010 New Zealand","osm","grocery"
"Speights Ale House","-36.8463746","174.7335349","Ponsonby Auckland 1011 New Zealand","osm","bar"
"The Italian Job","-36.8459621","174.7339098","Ponsonby Auckland 1011 New Zealand","osm","restaurant"
"Erawan Thai Restaurant","-36.8455854","174.7348931","Ponsonby Auckland 1011 New Zealand","osm","restaurant"
"Headquarters Restaurant  and Bar","-36.8430216","174.7536611","Auckland Central Auckland 1010 New Zealand","osm","bar"
"Botswana Butchery","-36.8430091","174.7667615","Auckland Central Auckland 1010 New Zealand","osm","restaurant"
"Charlie's","-36.8580852","174.7570722","Auckland Central Auckland 1010 New Zealand","osm","bar"
"Recycled Boutique","-36.84943","174.7646669","Auckland Central Auckland 1010 New Zealand","osm","shop"
"Elliot St car park","-36.8490658","174.7640713","Auckland Central Auckland 1010 New Zealand","osm","car"
"Betsia Kebabs","-36.8631885","174.7609606","Eden Terrace Auckland 1021 New Zealand","osm","restaurant"
"The Paddington","-36.8505721","174.7823592","Parnell Auckland 1052 New Zealand","osm","bar"
"Event Cinemas Queen Street","-36.8516408","174.7638181","Auckland Central Auckland 1010 New Zealand","osm","activities"
"Burger King","-36.8517656","174.7638327","Auckland Central Auckland 1010 New Zealand","osm","restaurant"
"Bishop's Residence","-36.8453947","174.7475329","St Marys Bay Auckland 1011 New Zealand","osm","religion"
"Leys Institute","-36.8466202","174.744669","St Marys Bay Auckland 1011 New Zealand","osm","education"
"Kingslander","-36.8722724","174.7443291","Kingsland Auckland 1021 New Zealand","osm","bar"
"Sausalito","-36.8178497","174.7451471","Northcote Point Auckland 0627 New Zealand","osm","restaurant"
"The Bridgeway","-36.8179699","174.745162","Northcote Point Auckland 0627 New Zealand","osm","activities"
"Epsom Medical Centre","-36.8796482","174.782961","Epsom Auckland 1023 New Zealand","osm","medical"
"McDonalds","-36.8619557","174.7503678","Grey Lynn Auckland 1021 New Zealand","osm","restaurant"
"Cairnhill Health Centre","-36.8729314","174.7685218","Epsom Auckland 1023 New Zealand","osm","medical"
"Peel to Pip","-36.8737042","174.7362519","Kingsland Auckland 1021 New Zealand","osm","cafe"
"Burger Fuel","-36.8572933","174.747988","Grey Lynn Auckland 1021 New Zealand","osm","restaurant"
"One2One","-36.8556208","174.7465344","Ponsonby Auckland 1011 New Zealand","osm","restaurant"
"Thai House","-36.8575309","174.7491026","Freemans Bay Auckland 1011 New Zealand","osm","restaurant"
"Tanuki","-36.8536161","174.763151","Auckland Central Auckland 1010 New Zealand","osm","restaurant"
"Thai Me Up","-36.8516172","174.7446886","Ponsonby Auckland 1011 New Zealand","osm","restaurant"
"Snatch","-36.8538284","174.7457975","Ponsonby Auckland 1011 New Zealand","osm","bar"
"GPK","-36.8507208","174.744347","Ponsonby Auckland 1011 New Zealand","osm","restaurant"
"Ponsonby Road Bistro","-36.854373","174.7460604","Ponsonby Auckland 1011 New Zealand","osm","restaurant"
"Subway","-36.8558483","174.7466178","Ponsonby Auckland 1011 New Zealand","osm","restaurant"
"Saffron","-36.8574322","174.7489337","Freemans Bay Auckland 1011 New Zealand","osm","restaurant"
"Nishiki","-36.8523296","174.7514162","Freemans Bay Auckland 1011 New Zealand","osm","bar"
"Prego","-36.8526609","174.7449821","Ponsonby Auckland 1011 New Zealand","osm","restaurant"
"Troys","-36.854476","174.7461073","Ponsonby Auckland 1011 New Zealand","osm","restaurant"
"Freemans Bay Pharmacy","-36.85235","174.7511774","Freemans Bay Auckland 1011 New Zealand","osm","medical"
"Auckland High Court","-36.8496607","174.7725085","Auckland Central Auckland 1010 New Zealand","osm","government"
"The Carpark","-36.843233","174.764065","Auckland Central Auckland 1010 New Zealand","osm","bar"
"Spotted Pig","-36.8646213","174.7608892","Grafton Auckland 1023 New Zealand","osm","restaurant"
"Yuzu","-36.8646142","174.7606116","Eden Terrace Auckland 1021 New Zealand","osm","restaurant"
"French Cafe","-36.8644845","174.7609728","Grafton Auckland 1023 New Zealand","osm","cafe"
"The Bean","-36.8623022","174.761255","Eden Terrace Auckland 1021 New Zealand","osm","cafe"
"Ginas","-36.8624448","174.7611752","Eden Terrace Auckland 1021 New Zealand","osm","restaurant"
"Limon","-36.8407169","174.7648189","Auckland Central Auckland 1010 New Zealand","osm","restaurant"
"Buffalo","-36.8405706","174.7648788","Auckland Central Auckland 1010 New Zealand","osm","restaurant"
"Y-Not","-36.8408535","174.764753","Auckland Central Auckland 1010 New Zealand","osm","restaurant"
"Outlaws Bar","-36.8432253","174.7624639","Auckland Central Auckland 1010 New Zealand","osm","bar"
"Kanpai","-36.8431141","174.7625502","Auckland Central Auckland 1010 New Zealand","osm","restaurant"
"Ironbar","-36.858064","174.7604466","Auckland Central Auckland 1010 New Zealand","osm","cafe"
"Mobil","-36.8473292","174.7793889","Auckland Central Auckland 1010 New Zealand","osm","car"
"Wildfire","-36.8419706","174.7644205","Auckland Central Auckland 1010 New Zealand","osm","restaurant"
"Neptune Cafe and Bar","-36.8410549","174.7646901","Auckland Central Auckland 1010 New Zealand","osm","cafe"
"Euro","-36.841659","174.7644504","Auckland Central Auckland 1010 New Zealand","osm","restaurant"
"Westpac","-36.844996","174.7569958","Auckland Central Auckland 1010 New Zealand","osm","money"
"Ocean View Buffet","-36.8404297","174.7649122","Auckland Central Auckland 1010 New Zealand","osm","restaurant"
"Wendy's","-36.8752415","174.7510161","Mount Eden Auckland 1024 New Zealand","osm","restaurant"
"Planet Cycles","-36.875337","174.7510431","Mount Eden Auckland 1024 New Zealand","osm","shop"
"Little Turkish Cafe","-36.8576425","174.7596789","Auckland Central Auckland 1010 New Zealand","osm","restaurant"
"Calendar Girls","-36.8575101","174.7588349","Auckland Central Auckland 1010 New Zealand","osm","bar"
"The Station Bar","-36.8570712","174.7586223","Auckland Central Auckland 1010 New Zealand","osm","bar"
"Ace Car Rental (The Strand)","-36.849868","174.7774212","Parnell Auckland 1052 New Zealand","osm","car"
"East Ponsonby","-36.8539985","174.7458679","Ponsonby Auckland 1011 New Zealand","osm","restaurant"
"Renkon Ponsonby","-36.8537462","174.7457594","Ponsonby Auckland 1011 New Zealand","osm","restaurant"
"World Beauty","-36.853716","174.7457454","Ponsonby Auckland 1011 New Zealand","osm","shop"
"Mea Culpa","-36.8537899","174.745781","Ponsonby Auckland 1011 New Zealand","osm","bar"
"Widdes","-36.8536431","174.7457171","Ponsonby Auckland 1011 New Zealand","osm","shop"
"Double J Photo","-36.8536786","174.7457315","Ponsonby Auckland 1011 New Zealand","osm","shop"
"Karen Walker","-36.8538859","174.7458256","Ponsonby Auckland 1011 New Zealand","osm","shop"
"T&C Drycleaners","-36.8540555","174.7458883","Ponsonby Auckland 1011 New Zealand","osm","shop"
"Devonport Chocolates","-36.8536131","174.745699","Ponsonby Auckland 1011 New Zealand","osm","cafe"
"Lulus","-36.8539469","174.7458476","Ponsonby Auckland 1011 New Zealand","osm","cafe"
"Masons","-36.8535712","174.7456809","Ponsonby Auckland 1011 New Zealand","osm","shop"
"McDonald's","-36.8437317","174.7663446","Auckland Central Auckland 1010 New Zealand","osm","restaurant"
"Murder Burger","-36.8758245","174.7509541","Mount Eden Auckland 1024 New Zealand","osm","restaurant"
"Valentines Mount Eden","-36.8778472","174.7508113","Mount Eden Auckland 1024 New Zealand","osm","restaurant"
"Pizza Hut","-36.875629","174.7509914","Mount Eden Auckland 1024 New Zealand","osm","restaurant"
"Vodafone","-36.8762318","174.750808","Mount Eden Auckland 1024 New Zealand","osm","shop"
"Subway","-36.8776837","174.7515397","Mount Eden Auckland 1024 New Zealand","osm","restaurant"
"Lone Star Cafe","-36.8679513","174.7762768","Newmarket Auckland 1023 New Zealand","osm","cafe"
"Grey Lynn Medical Centre","-36.864858","174.7377134","Grey Lynn Auckland 1021 New Zealand","osm","medical"
"Worldwise Health Vaccination Centre","-36.8717965","174.780211","Remuera Auckland 1050 New Zealand","osm","medical"
"Auckland Family Medical Centre","-36.8729088","174.7816193","Remuera Auckland 1050 New Zealand","osm","medical"
"Lumino The Dentists","-36.8744151","174.7844855","Remuera Auckland 1050 New Zealand","osm","medical"
"Birthright","-36.8733295","174.7826042","Remuera Auckland 1050 New Zealand","osm","medical"
"One Health Medical Centre","-36.8740124","174.7837123","Remuera Auckland 1050 New Zealand","osm","medical"
"Beagle Cafe","-36.8489695","174.7911887","Parnell Auckland 1052 New Zealand","osm","cafe"
"Slurp Cafe","-36.8520588","174.7698697","Auckland Central Auckland 1010 New Zealand","osm","cafe"
"Pacific Island Presbyterian Church","-36.8591885","174.755293","Auckland Central Auckland 1010 New Zealand","osm","religion"
"Twenty Four Seven","-36.8578799","174.7565894","Auckland Central Auckland 1010 New Zealand","osm","bar"
"Modicum Cafe","-36.8616253","174.7591392","Eden Terrace Auckland 1021 New Zealand","osm","cafe"
"Torpedo7","-36.85945","174.7533436","Auckland Central Auckland 1010 New Zealand","osm","shop"
"Basque Kitchen and Bar","-36.8668749","174.7773712","Newmarket Auckland 1023 New Zealand","osm","restaurant"
"Animalia","-36.8718278","174.7775728","Newmarket Auckland 1023 New Zealand","osm","shop"
"Cafe Hum","-36.8603895","174.7665392","Grafton Auckland 1023 New Zealand","osm","cafe"
"Theatre Cafe","-36.8578534","174.7588123","Auckland Central Auckland 1010 New Zealand","osm","cafe"
"City Med","-36.8450483","174.7651864","Auckland Central Auckland 1010 New Zealand","osm","medical"
"Relax Lounge","-36.8519358","174.768582","Auckland Central Auckland 1010 New Zealand","osm","cafe"
"Albert Park Espresso","-36.849944","174.7664577","Auckland Central Auckland 1010 New Zealand","osm","cafe"
"Brickhouse espresso bar","-36.8566875","174.7655887","Grafton Auckland 1023 New Zealand","osm","cafe"
"Taste Cafe","-36.8555329","174.7657048","Auckland Central Auckland 1010 New Zealand","osm","cafe"
"Cibo Parnell","-36.8524269","174.7826921","Parnell Auckland 1052 New Zealand","osm","restaurant"
"Auckland City Ferry Terminal","-36.8423851","174.7666328","Auckland Central Auckland 1010 New Zealand","osm","delete"
"Westpac","-36.8577615","174.7617553","Auckland Central Auckland 1010 New Zealand","osm","money"
"Mobil","-36.8626114","174.7818515","Parnell Auckland 1052 New Zealand","osm","car"
"Quickcash","-36.8654879","174.7374704","Grey Lynn Auckland 1021 New Zealand","osm","money"
"Storage Box","-36.8698484","174.7766931","Newmarket Auckland 1023 New Zealand","osm","shop"
"Joy Dentist","-36.8853749","174.7614127","Mount Eden Auckland 1024 New Zealand","osm","medical"
"Mobil","-36.8838815","174.7617461","Mount Eden Auckland 1024 New Zealand","osm","car"
"Mount Eden Dental Surgery","-36.8847415","174.7614308","Mount Eden Auckland 1024 New Zealand","osm","medical"
"Epsom Library","-36.8818604","174.7753275","Epsom Auckland 1023 New Zealand","osm","education"
"McDonald's","-36.8871376","174.7466099","Mount Eden Auckland 1024 New Zealand","osm","restaurant"
"Quickcash","-36.848196","174.7437872","Ponsonby Auckland 1011 New Zealand","osm","money"
"Parnell French Market","-36.8537941","174.78412","Parnell Auckland 1052 New Zealand","osm","shop"
"Frasers","-36.8814529","174.7621885","Mount Eden Auckland 1024 New Zealand","osm","cafe"
"Crave","-36.8751239","174.736757","Mount Eden Auckland 1024 New Zealand","osm","cafe"
"Harvest Whole Foods","-36.8586845","174.7303036","Grey Lynn Auckland 1021 New Zealand","osm","grocery"
"Apex Car Rentals","-36.8499755","174.7747578","Auckland Central Auckland 1010 New Zealand","osm","car"
"Countdown","-36.8486288","174.7644501","Auckland Central Auckland 1010 New Zealand","osm","grocery"
"Omega Car Rentals","-36.8473411","174.7733622","Auckland Central Auckland 1010 New Zealand","osm","car"
"Europcar","-36.8471588","174.7691414","Auckland Central Auckland 1010 New Zealand","osm","car"
"Wendys","-36.850614","174.764741","Auckland Central Auckland 1010 New Zealand","osm","restaurant"
"Number One Shoes","-36.8497382","174.7637842","Auckland Central Auckland 1010 New Zealand","osm","shop"
"asb","-36.8484445","174.7628474","Auckland Central Auckland 1010 New Zealand","osm","money"
"ASB","-36.849698","174.7627401","Auckland Central Auckland 1010 New Zealand","osm","money"
"Rupa's Cafe","-36.8521803","174.7520206","Freemans Bay Auckland 1011 New Zealand","osm","cafe"
"New World","-36.8465198","174.7658733","Auckland Central Auckland 1010 New Zealand","osm","grocery"
"Hollywood","-36.8470407","174.7642887","Auckland Central Auckland 1010 New Zealand","osm","cafe"
"Men Tatz","-36.8504945","174.7656807","Auckland Central Auckland 1010 New Zealand","osm","restaurant"
"McDonald's","-36.8500763","174.7650525","Auckland Central Auckland 1010 New Zealand","osm","restaurant"
"ASB Bank","-36.8511746","174.7646499","Auckland Central Auckland 1010 New Zealand","osm","money"
"Classic Bakehouse","-36.8499899","174.7640276","Auckland Central Auckland 1010 New Zealand","osm","cafe"
"B1 Bar","-36.8498945","174.7640722","Auckland Central Auckland 1010 New Zealand","osm","bar"
"Camera and Camera","-36.847745","174.765866","Auckland Central Auckland 1010 New Zealand","osm","shop"
"Tournament City Centre Car Park","-36.8478105","174.7643388","Auckland Central Auckland 1010 New Zealand","osm","car"
"Wilson Parking - Durham Lane","-36.847965","174.7642905","Auckland Central Auckland 1010 New Zealand","osm","car"
"Zest","-36.8624669","174.7587949","Eden Terrace Auckland 1021 New Zealand","osm","cafe"
"Old Government House","-36.8500457","174.7704088","Auckland Central Auckland 1010 New Zealand","osm","bar"
"Medical Center ","-36.8505565","174.7649074","Auckland Central Auckland 1010 New Zealand","osm","medical"
"Raft","-36.8271488","174.7805594","0624 New Zealand","osm","sports"
"Sierra Cafe","-36.857394","174.7649737","Grafton Auckland 1023 New Zealand","osm","cafe"
"Cafe Crema","-36.8570774","174.7647376","Grafton Auckland 1023 New Zealand","osm","cafe"
"Costa Cafe","-36.8567968","174.7634396","Grafton Auckland 1023 New Zealand","osm","cafe"
"SPE Bar and Restaurant","-36.857997","174.7628714","Grafton Auckland 1023 New Zealand","osm","bar"
"Alleluya Bar & Cafe","-36.8572893","174.7602103","Auckland Central Auckland 1010 New Zealand","osm","cafe"
"Sal's Pizza","-36.8577402","174.7602984","Auckland Central Auckland 1010 New Zealand","osm","restaurant"
"Honeytrap","-36.8575626","174.7600667","Auckland Central Auckland 1010 New Zealand","osm","cafe"
"Revel Cafe","-36.8580703","174.7606374","Auckland Central Auckland 1010 New Zealand","osm","cafe"
"Thirsty Dog Tavern & Caf","-36.8583307","174.7551742","Auckland Central Auckland 1010 New Zealand","osm","bar"
"Cafe Karadeniz","-36.8605942","174.7670665","Grafton Auckland 1023 New Zealand","osm","restaurant"
"Domain Deli","-36.8607697","174.7678227","Grafton Auckland 1023 New Zealand","osm","cafe"
"Road Cafe Crema","-36.8609058","174.76837","Grafton Auckland 1023 New Zealand","osm","cafe"
"Subway","-36.8609439","174.7685272","Grafton Auckland 1023 New Zealand","osm","restaurant"
"Grafton Pharmacy","-36.8607432","174.7676581","Grafton Auckland 1023 New Zealand","osm","medical"
"Quiche","-36.8606756","174.7674351","Grafton Auckland 1023 New Zealand","osm","cafe"
"Balmoral Veterinary Care","-36.8833889","174.748831","Mount Eden Auckland 1024 New Zealand","osm","medical"
"Lumino The Dentists","-36.8804069","174.7497315","Mount Eden Auckland 1024 New Zealand","osm","medical"
"Tiffin","-36.8738479","174.7369184","Kingsland Auckland 1021 New Zealand","osm","restaurant"
"ASB","-36.873843","174.744099","Mount Eden Auckland 1024 New Zealand","osm","money"
"ANZ","-36.8459186","174.766963","Auckland Central Auckland 1010 New Zealand","osm","money"
"ANZ","-36.847315","174.7658953","Auckland Central Auckland 1010 New Zealand","osm","money"
"ANZ","-36.8502807","174.7649006","Auckland Central Auckland 1010 New Zealand","osm","money"
"ASB","-36.8474593","174.765877","Auckland Central Auckland 1010 New Zealand","osm","money"
"ASB","-36.8493942","174.7652936","Auckland Central Auckland 1010 New Zealand","osm","money"
"Ah Ssak Restaurant","-36.8559431","174.7624186","Auckland Central Auckland 1010 New Zealand","osm","restaurant"
"BBQ Buffet Restaurant","-36.856705","174.7620766","Auckland Central Auckland 1010 New Zealand","osm","restaurant"
"Bank of New Zealand","-36.8502174","174.7649301","Auckland Central Auckland 1010 New Zealand","osm","money"
"Banzai Sushi and Sake","-36.8636524","174.7607629","Eden Terrace Auckland 1021 New Zealand","osm","restaurant"
"Buns Cafe","-36.8489383","174.7662697","Auckland Central Auckland 1010 New Zealand","osm","cafe"
"Burger Fuel","-36.8511065","174.7640866","Auckland Central Auckland 1010 New Zealand","osm","restaurant"
"Burger King","-36.8494662","174.7652748","Auckland Central Auckland 1010 New Zealand","osm","restaurant"
"Cima Cafe and Bar","-36.84881","174.7663087","Auckland Central Auckland 1010 New Zealand","osm","cafe"
"Dae Ga Restaurant","-36.8560594","174.7623686","Auckland Central Auckland 1010 New Zealand","osm","restaurant"
"Esquires Cafe","-36.8504905","174.7654423","Auckland Central Auckland 1010 New Zealand","osm","cafe"
"Gloria Jeans Coffees","-36.8578145","174.7624762","Grafton Auckland 1023 New Zealand","osm","cafe"
"Gourmet Burger House","-36.8452539","174.7681643","Auckland Central Auckland 1010 New Zealand","osm","restaurant"
"Hollywood","-36.8541338","174.7631539","Auckland Central Auckland 1010 New Zealand","osm","cafe"
"Il Mee Restaurant","-36.8561678","174.7623204","Auckland Central Auckland 1010 New Zealand","osm","restaurant"
"Ku Bick","-36.8541814","174.7631141","Auckland Central Auckland 1010 New Zealand","osm","restaurant"
"Le Garde Manger","-36.8557327","174.7625058","Auckland Central Auckland 1010 New Zealand","osm","cafe"
"Liang's Hot Pot Restaurant","-36.8616353","174.7615315","Eden Terrace Auckland 1021 New Zealand","osm","restaurant"
"MLC Cafe and Bar","-36.8532462","174.7637048","Auckland Central Auckland 1010 New Zealand","osm","cafe"
"Masako Restaurant","-36.8577587","174.7619639","Auckland Central Auckland 1010 New Zealand","osm","restaurant"
"Neighbours Restaurant","-36.8498168","174.7659054","Auckland Central Auckland 1010 New Zealand","osm","restaurant"
"Peters Cafe","-36.8562762","174.7622734","Auckland Central Auckland 1010 New Zealand","osm","cafe"
"Pho Saigon","-36.8497278","174.7659444","Auckland Central Auckland 1010 New Zealand","osm","restaurant"
"Quickcash","-36.8563436","174.762153","Auckland Central Auckland 1010 New Zealand","osm","money"
"Real Groovy","-36.8546472","174.7630885","Auckland Central Auckland 1010 New Zealand","osm","shop"
"Romani Cafe","-36.8461198","174.7679303","Auckland Central Auckland 1010 New Zealand","osm","cafe"
"Sheinkin Restaurant and Cafe","-36.8495905","174.7658872","Auckland Central Auckland 1010 New Zealand","osm","restaurant"
"Sierra Cafe","-36.8494768","174.7660802","Auckland Central Auckland 1010 New Zealand","osm","cafe"
"Sri Mahkota Restaurant","-36.8634429","174.760871","Eden Terrace Auckland 1021 New Zealand","osm","restaurant"
"Starbucks","-36.8492199","174.765428","Auckland Central Auckland 1010 New Zealand","osm","cafe"
"Subway","-36.851479","174.7644584","Auckland Central Auckland 1010 New Zealand","osm","restaurant"
"The Coffee Club","-36.8451342","174.7679245","Auckland Central Auckland 1010 New Zealand","osm","cafe"
"Zap Thai","-36.8454623","174.7678486","Auckland Central Auckland 1010 New Zealand","osm","restaurant"
"Rub-A-Dub Self-Service Carwash","-36.8479863","174.7821996","Auckland Central Auckland 1010 New Zealand","osm","car"
"Moti Mahal","-36.8524874","174.7512979","Freemans Bay Auckland 1011 New Zealand","osm","restaurant"
"ASB Bank","-36.8616452","174.7705294","Grafton Auckland 1023 New Zealand","osm","money"
"Columbus Coffee","-36.8613918","174.7704476","Grafton Auckland 1023 New Zealand","osm","cafe"
"BurgerFuel","-36.8547529","174.7799442","Parnell Auckland 1052 New Zealand","osm","restaurant"
"Real Groovy","-36.8546721","174.7630796","Auckland Central Auckland 1010 New Zealand","osm","shop"
"Starbucks","-36.8518177","174.7638283","Auckland Central Auckland 1010 New Zealand","osm","cafe"
"Urban Turban","-36.840647","174.7570316","Auckland Central Auckland 1010 New Zealand","osm","restaurant"
"Nosh Metro","-36.8510072","174.7444064","Ponsonby Auckland 1011 New Zealand","osm","grocery"
"The Morrow Street Carpark","-36.8703","174.7768983","Newmarket Auckland 1023 New Zealand","osm","car"
"Wintergarden Pavillion Kiosk","-36.8596797","174.7737321","Parnell Auckland 1052 New Zealand","osm","restaurant"
"Four Seasons Restaurant","-36.8850103","174.7754966","Epsom Auckland 1023 New Zealand","osm","restaurant"
"Jack Tar","-36.8407751","174.7575015","Auckland Central Auckland 1010 New Zealand","osm","restaurant"
"Live Fish","-36.8405845","174.7568123","Auckland Central Auckland 1010 New Zealand","osm","restaurant"
"Marcello's Cafe","-36.8485576","174.7489541","Freemans Bay Auckland 1011 New Zealand","osm","cafe"
"Marvel Grill","-36.8409484","174.7581618","Auckland Central Auckland 1010 New Zealand","osm","restaurant"
"Merchants Venice","-36.8405426","174.7566347","Auckland Central Auckland 1010 New Zealand","osm","restaurant"
"Pescado","-36.8404737","174.756398","Auckland Central Auckland 1010 New Zealand","osm","restaurant"
"Rushworth","-36.840888","174.7579563","Auckland Central Auckland 1010 New Zealand","osm","restaurant"
"Westhaven Cafe","-36.8440724","174.7533023","Auckland Central Auckland 1010 New Zealand","osm","cafe"
"ANZ","-36.8427081","174.7634756","Auckland Central Auckland 1010 New Zealand","osm","money"
"The Strand Vet","-36.8496199","174.7813175","Parnell Auckland 1052 New Zealand","osm","medical"
"Barbeque","-36.8163272","174.741543","Northcote Point Auckland 0627 New Zealand","osm","restaurant"
"Old Folks Ass.","-36.8597362","174.7542533","Auckland Central Auckland 1010 New Zealand","osm","activities"
"Garnet Station","-36.8591052","174.7236699","Westmere Auckland 1022 New Zealand","osm","cafe"
"BBQ","-36.8796141","174.7385417","Sandringham Auckland 1025 New Zealand","osm","restaurant"
"Wellesley St PostShop","-36.8513978","174.763104","Auckland Central Auckland 1010 New Zealand","osm","government"
"asia supermarket","-36.8589079","174.758972","Auckland Central Auckland 1010 New Zealand","osm","grocery"
"best buy","-36.8584978","174.7588403","Auckland Central Auckland 1010 New Zealand","osm","shop"
"Monterey Cafe","-36.8585946","174.7309009","Grey Lynn Auckland 1021 New Zealand","osm","cafe"
"Gypsy Tea Room","-36.8592916","174.7314739","Grey Lynn Auckland 1021 New Zealand","osm","bar"
"Little and Friday","-36.8557419","174.7425083","Ponsonby Auckland 1011 New Zealand","osm","cafe"
"Fruit World","-36.8551412","174.7320851","Grey Lynn Auckland 1021 New Zealand","osm","grocery"
"WorldWide School of English","-36.8499464","174.7647682","Auckland Central Auckland 1010 New Zealand","osm","education"
"City Dance","-36.8500972","174.7650066","Auckland Central Auckland 1010 New Zealand","osm","education"
"Wise Cicada","-36.8684027","174.7748478","Newmarket Auckland 1023 New Zealand","osm","cafe"
"Cream Cafe","-36.8626191","174.759119","Eden Terrace Auckland 1021 New Zealand","osm","cafe"
"Nash Glass","-36.8573477","174.7465593","Grey Lynn Auckland 1021 New Zealand","osm","delete"
"Pintxos Tapas Bar","-36.8570152","174.7473199","Grey Lynn Auckland 1021 New Zealand","osm","restaurant"
"Brew on Quay","-36.8444224","174.7707104","Auckland Central Auckland 1010 New Zealand","osm","bar"
"Calliope Road Cafe","-36.8290892","174.7927852","Devonport Auckland 0624 New Zealand","osm","cafe"
"Bayswater Superette","-36.8152801","174.7739926","Bayswater Auckland 0622 New Zealand","osm","grocery"
"maison vauron","-36.8673131","174.7736406","Newmarket Auckland 1023 New Zealand","osm","grocery"
"The House of Rugby","-36.8530064","174.7566079","Auckland Central Auckland 1010 New Zealand","osm","restaurant"
"The House of Rugby","-36.8530577","174.7566433","Auckland Central Auckland 1010 New Zealand","osm","restaurant"
"New Zealand Blood Service","-36.8817141","174.7837886","Epsom Auckland 1023 New Zealand","osm","medical"
"Ashton Grove Ltd","-36.8647953","174.7794969","Newmarket Auckland 1023 New Zealand","osm","shop"
"Domino's","-36.84647","174.766982","Auckland Central Auckland 1010 New Zealand","osm","restaurant"
"Burger King","-36.846292","174.7659879","Auckland Central Auckland 1010 New Zealand","osm","restaurant"
"factorie","-36.8462108","174.7660191","Auckland Central Auckland 1010 New Zealand","osm","shop"
"Tasca","-36.8472101","174.767","Auckland Central Auckland 1010 New Zealand","osm","cafe"
"Melba","-36.8473062","174.766946","Auckland Central Auckland 1010 New Zealand","osm","cafe"
"46 & York","-36.8515377","174.7782307","Parnell Auckland 1052 New Zealand","osm","bar"
"Thai Chef's Restaurant","-36.8519688","174.7784509","Parnell Auckland 1052 New Zealand","osm","restaurant"
